~Version
VERS .                                       2.0 : LOG ASCII STANDARD - VERSION 2.0
WRAP .                                        NO : WRAP MODE

~Well
STRT .M                                   343.96 : First Index Value
STOP .M                                   915.00 : Last Index Value
STEP .M                                   0.1524 : STEP
NULL .                                   -999.25 : NULL VALUE
CN   .                                    KAROON : Company
WN   .                             1-KPGL-1D-SPS : Well
FN   .                                  S-M-1101 : Field
BASI .                                    SANTOS : Location
LCC  .            Weatherford International Ltd. : Service Company
CTRY .                                    Brazil : Country
LAT  .                             -26:06:26.776 : Latitude
LONG .                             -46:11:00.404 : Longitude
XLOC .M                              7111926.174 : Global X/Y
YLOC .M                               381711.234 : Global X/Y
GDAT .                                     SAD69 : Geodetic Datum
HDAT .                                     SAD69 : Horizontal Datum 
STAT .                                 SAO PAULO : State
CNTY .                                  Offshore : County
APIN .                               86316026760 : API Number
BAP  .M                                  -999.25 : Elevation of Base Antepoco 
BS   .IN                                   26.00 : Bit Diameter
BS1  .IN                                   36.00 : Bit Diameter
BS2  .IN                                   26.00 : Bit Diameter
BS3  .IN                                 -999.25 : Bit Diameter
BS4  .IN                                 -999.25 : Bit Diameter
CBD  .M                                   418.00 : Casing Depth - Driller
CBD1 .M                                   418.00 : Casing Depth - Driller
CBD2 .M                                  -999.25 : Casing Depth - Driller
CBD3 .M                                  -999.25 : Casing Depth - Driller
CBL  .M                                   418.00 : Casing Depth - Logger
CBL1 .M                                   418.00 : Casing Depth - Logger
CBL2 .M                                  -999.25 : Casing Depth - Logger
CBL3 .M                                  -999.25 : Casing Depth - Logger
CS1  .IN                                   30.00 : Casing Diameter
CS2  .IN                                   30.00 : Casing Diameter
CS3  .IN                                 -999.25 : Casing Diameter
CSW  .LB/F                                553.21 : Casing Weight
CSW1 .LB/F                                553.21 : Casing Weight
CSW2 .LB/F                               -999.25 : Casing Weight
CSW3 .LB/F                               -999.25 : Casing Weight
EDF  .M                                    28.00 : Rotary Table Elevation
DMF  .                                        MR : Reference of Depth - Driller
TDD  .M                                   915.00 : Total Depth - Driller
TDD1 .M                                   418.00 : Total Depth - Driller
TDD2 .M                                   915.00 : Total Depth - Driller
TDD3 .M                                  -999.25 : Total Depth - Driller
HIDE .                             1-KPGL-1D-SPS : Header Identifier
MAGD .DEG                                 -20.38 : Magnetic Declination
WITN .                              J.MC CAMBELL : Witness

~Parameter
PDAT .                                        NM : Permanent Datum
APD  .                                        28 : Above Permanent Datum
DREF .                                        RT : Depth Reference
EDR  .M                                       28 : Elevation of Depth Reference
LMF  .                                        RT : Log Measured From
DMF  .                                        RT : Drilling Measured From
EGL  .M                                  -316.00 : Elevation - Ground Level
EKB  .M                                  -999.25 : Elevation - Kelly Bushing
EDF  .M                                       28 : Elevation - Drill Floor
RUN  .                                        01 : Run Name
LCC  .                                    KAROON : Logging Company Code 
LNAM .                                GR/MFR/BAP : Log Names Identificator 
LDAT .                                28/12/2012 : Logging Date
TCS  .HR                                   02:17 : Time Ciculation Stopped
TLAB .HR                                   20:40 : Time Logger At Bottom    
TDD  .M                                   915.00 : Depth - Driller
TDL  .M                                   915.00 : Depth - Logger
BLI  .M                                   898.13 : Bottom Log Interval
TLI  .M                                   418.00 : Top Log Interval
CBD  .M                                   418.00 : Casing Depth - Driller
CBL  .M                                   418.00 : Casing Depth - Logger
BS   .IN                                   26.00 : Bit Size
CS   .IN                                   30.00 : Casing Size Line
CSW  .LB/F                                553.21 : Casing Weight  
DFT  .                               Water Based : Type of Drilling Fluid
DFD  .LB/G                               -999.25 : Drilling Fluid Density
DFV  .S                                  -999.25 : Drilling Fluid Viscosity
DFPH .                                   -999.25 : Drilling Fluid pH
DFL  .C3                                 -999.25 : Drilling Fluid Loss
DFS  .PPM                                -999.25 : Drilling Fluid Salinity
BARI .                                       OFF : Barite On/Off Switch  
RMS  .OHMM                               -999.25 : Mud Resistivity
MST  .DEGC                               -999.25 : Rm Temperature
MSS  .                                  PENEIRAS : Mud Sample Source 
RMFS .OHMM                               -999.25 : Mud Filtrate Resistivity
MFST .DEGC                               -999.25 : Rmf Temperature
MFSS .                                    PRENSA : Mud Filtrate Source 
RMCS .OHMM                               -999.25 : Mud Cake Resistivity
MCST .DEGC                               -999.25 : Rmc Temperature
MCSS .                                    PRENSA : Mud Cake Source 
RMBH .OHMM                               -999.25 : Rm at BHT
STEM .DEGC                               -999.25 : Surface Temperature 
BHT  .DEGC                                  28.9 : Bottom Hole Temperature
MRT  .DEGC                                  28.9 : Max Recorded Temperature
MATR .                                   -999.25 : Neutron Porosity Matrix
MDEN .G/C3                               -999.25 : Matrix Density
FD   .G/C3                               -999.25 : Formation Fluid Density
LTYP .                                       RAW : Log Type
LSRV .                                       LWD : Logging Service  
TPOS .                                         C : Tool Position (centered or variable)
TOOL .                               GAM/MFR/BAP : Tool Strig
R1   .            COUNTY: Offshore : Remark Line 1
R2   .            INICIO DA CIRCULACAO: 28/12/2012 @ 07:36 h;  FIM DA CIRCULACAO: 30/12/2012 @ 02:17 h;  TEMPO TOTAL = 31.8 h. : Remark Line 2
R3   .            TEMPERATURA DE SUPERFICIE = 23.9 degC;  FUNDO = 28.9 degC @ 915 m. : Remark Line 3
R4   .            COORDENADAS DE SUPERFICIE (DATUM SAD69):  N: 7.111.926,174 m;  E: 381.711,234 m. LAT: -26:06:26.776; LONG: -46:11:00.404. /  BASE (DATUM SAD69):  N: 7.112.025,780 m;  E: 381.573,410 m. : Remark Line 4
R5   .            PRIMEIRAS LEITURAS:  HAGRT = 418m; RES = 418m; PRESS= 418m. : Remark Line 5
R6   .            ULTIMAS LEITURAS:  HAGRT = 898.11m; RES = 895.15m; PRESS= 887.37m. : Remark Line 6
R7   .            LAMA:  base agua; peso lama = 12 ppg; Salinidade =  N/A mg/l Total Cloretos; Oil = 0%; Agua= 100%; Baritina = N/A. : Remark Line 7
R8   .            INCLINACAO MAXIMA:  1.14 deg @ 469.82 m. : Remark Line 8
R9   .            DECLINACAO MAGNETICA:  -20.38 deg. : Remark Line 9
ENGI .            SHIDFAR/ANDRADE : Engineer's Names

~Curve
DEPT .M                                          : DEPTH
TVD  .M                                          : True Vertical Depth
ROP  .M/HR                                       : Rate of Penetration
RPD2_X.HR                                        : Exposure Time of 2 MHz 46" PH Calculated Downhole
GR   .GAPI                                       : Gamma Ray Total
RPD2 .OHMM                                       : 2 MHz 46" PH Calculated Downhole
RPM2 .OHMM                                       : 2 MHz 30" PH Calculated Downhole
RPS2 .OHMM                                       : 2 MHz 20" PH Calculated Downhole
ECD  .LB/G                                       : Equivalent Circulating Density
AP   .PSI                                        : Recorded Annulus Pressure
ATMP .DEGF                                       : Recorded Annulus Temperature
TVLATAVG.G                                       : TVM Lateral Average Accelerometer
TVAXAVG.G                                        : TVM Axial Average Accelerometer
TVTOTAVG.G                                       : TVM Average Total Accelerometer

~ASCII
# ...
      636.5748     583.5995    46.85         1.1258    117.3449       0.7358     0.5389     0.3666     9.7380     937.6589    78.8000     0.0112     0.0000     0.0112
      636.7272     583.7519    47.34         1.1218    112.5678       0.7365     0.5398     0.3649     9.7382     938.1392    78.8000     0.0159     0.0000     0.0159
      636.8796     583.9043    47.88         1.1235    109.0189       0.7477     0.5494     0.3698     9.7384     938.5025    78.8000     0.0187     0.0000     0.0187
      637.0320     584.0567    47.88         1.1243    108.6035       0.7548     0.5547     0.3723     9.7383     938.6957    78.8000     0.0228     0.0000     0.0228
      637.1844     584.2091    47.81         1.1264     97.2058       0.7665     0.5618     0.3762     9.7383     938.8688    78.8000     0.0266     0.0000     0.0266
      637.3368     584.3615    47.70         1.1276     97.2082       0.7728     0.5660     0.3782     9.7396     939.2538    78.8000     0.0224     0.0000     0.0224
      637.4892     584.5139    47.51         1.1282     97.6727       0.7765     0.5680     0.3800     9.7399     939.5288    78.8000     0.0247     0.0000     0.0247
      637.6416     584.6663    47.30         1.1298    100.1660       0.7842     0.5727     0.3828     9.7406     939.7600    78.8000     0.0239     0.0000     0.0239
      637.7940     584.8187    47.24         1.1291    107.1296       0.7777     0.5665     0.3793     9.7433     940.2757    78.8000     0.0175     0.0000     0.0175
      637.9464     584.9711    47.21         1.1283    111.6016       0.7691     0.5594     0.3776     9.7464     940.7763    78.8000     0.0183     0.0000     0.0183
      638.0988     585.1235    47.14         1.1275    116.7838       0.7610     0.5536     0.3741     9.7496     941.3342    78.8000     0.0154     0.0016     0.0170
      638.2512     585.2759    47.14         1.1263    118.4503       0.7510     0.5457     0.3699     9.7530     941.9696    78.8000     0.0121     0.0022     0.0143
      638.4036     585.4283    46.60         1.1261    119.4366       0.7480     0.5437     0.3698     9.7551     942.4426    78.8000     0.0085     0.0033     0.0118
      638.5560     585.5807    46.31         1.1262    115.4751       0.7495     0.5424     0.3679     9.7559     942.6895    78.8000     0.0073     0.0049     0.0122
      638.7084     585.7331    45.78         1.1263    107.1724       0.7614     0.5478     0.3696     9.7565     942.8796    78.8000     0.0055     0.0038     0.0093
      638.8608     585.8855    45.64         1.1260    107.4907       0.7711     0.5521     0.3699     9.7560     943.0319    78.9385     0.0060     0.0029     0.0089
      639.0132     586.0379    45.57         1.1202    110.0860       0.7804     0.5579     0.3708     9.7558     943.1631    79.0769     0.0056     0.0023     0.0079
      639.1656     586.1903    45.57         1.0966    112.2433       0.7953     0.5643     0.3723     9.7593     943.8979    79.2154     0.0050     0.0000     0.0050
      639.3180     586.3427    45.57         1.0666    123.6047       0.7989     0.5683     0.3730     9.7567     944.2296    79.3538     0.0042     0.0000     0.0042
      639.4704     586.4950    45.57         1.0419    126.8705       0.8011     0.5705     0.3746     9.7615     945.0733    79.4923     0.0038     0.0000     0.0038
      639.6228     586.6474    45.57         1.0201    131.4743       0.7960     0.5681     0.3754     9.7618     945.2456    79.6308     0.0049     0.0000     0.0049
      639.7752     586.7998    45.57         1.0012    135.7127       0.7878     0.5665     0.3760     9.7628     945.4992    79.7692     0.0158     0.0000     0.0158
      639.9276     586.9522    45.57         0.9816    136.8571       0.7779     0.5633     0.3763     9.7640     945.8119    79.9077     0.0215     0.0000     0.0215
      640.0800     587.1046    45.66         0.9673    130.0030       0.7651     0.5606     0.3764     9.7631     946.0409    80.0462     0.0219     0.0000     0.0219
      640.2324     587.2570    45.75         0.8349    130.3022       0.7521     0.5598     0.3779     9.7664     946.6717    80.1846     0.0197     0.0021     0.0218
      640.3848     587.4094    46.05         0.6824    122.7474       0.7428     0.5589     0.3780     9.7909     949.4048    80.3231     0.0184     0.0027     0.0211
      640.5372     587.5618    46.64         0.6084    119.0511       0.7432     0.5598     0.3787     9.8100     951.4461    80.4615     0.0142     0.0036     0.0178
      640.6896     587.7142    46.81         0.5158    118.7506       0.7380     0.5612     0.3804     9.8293     953.4572    80.6000     0.0141     0.0039     0.0181
      640.8420     587.8666    47.03         0.4275    110.6135       0.7323     0.5595     0.3830     9.8459     955.2333    80.6000     0.0170     0.0028     0.0198
      640.9944     588.0190    43.39         0.4260    114.3981       0.7291     0.5592     0.3842     9.8550     956.2342    80.6000     0.0185     0.0021     0.0206
      641.1468     588.1714    39.27         0.4238    116.4257       0.7218     0.5577     0.3869     9.8590     956.7665    80.6000     0.0193     0.0000     0.0193
      641.2992     588.3238    34.85         0.4208    117.7947       0.7146     0.5539     0.3891     9.8456     955.6621    80.6000     0.0189     0.0000     0.0189
      641.4516     588.4762    31.08         0.4174    127.3796       0.7125     0.5529     0.3898     9.8101     952.5340    80.6000     0.0119     0.0000     0.0119
      641.6040     588.6286    29.90         0.4157    131.5567       0.7096     0.5510     0.3909     9.7604     948.0762    80.6000     0.0098     0.0000     0.0098
      641.7564     588.7810    33.16         0.4140    136.6954       0.7088     0.5499     0.3888     9.6646     939.4478    77.0000     0.0040     0.0000     0.0040
      641.9088     588.9334    36.13         0.4128    139.8508       0.7097     0.5570     0.3938     9.6568     938.9061    77.0000     0.0062     0.0000     0.0062
      642.0612     589.0858    38.90         0.4122    134.4784       0.7168     0.5660     0.3974     9.6548     938.9064    77.0000     0.0085     0.0033     0.0119
      642.2136     589.2382    42.28         0.4117    132.3109       0.7256     0.5749     0.4030     9.6524     938.8781    77.0000     0.0118     0.0044     0.0162
      642.3660     589.3906    45.67         0.4116    126.8142       0.7375     0.5845     0.4057     9.6500     938.9006    77.0000     0.0133     0.0062     0.0195
      642.5184     589.5430    47.51         0.4115    121.8260       0.7469     0.5911     0.4084     9.6474     938.8513    77.0000     0.0153     0.0079     0.0232
      642.6708     589.6954    47.70         0.4106    123.1774       0.7734     0.6014     0.4090     9.6455     938.8398    77.0000     0.0136     0.0062     0.0198
      642.8232     589.8478    47.99         0.4099    123.8046       0.7939     0.6098     0.4080     9.6436     938.8476    77.1059     0.0109     0.0049     0.0158
      642.9756     590.0002    48.16         0.4101    123.2820       0.8168     0.6167     0.4096     9.6409     938.8172    77.2118     0.0102     0.0037     0.0139
      643.1280     590.1526    48.47         0.4103    121.5736       0.8206     0.6179     0.4113     9.6389     938.9368    77.3176     0.0091     0.0000     0.0091
      643.2804     590.3050    48.52         0.4108    120.0833       0.8249     0.6185     0.4118     9.6359     939.2441    77.4235     0.0126     0.0000     0.0126
      643.4328     590.4574    49.06         0.4116    115.6302       0.8245     0.6188     0.4130     9.6351     939.4262    77.5294     0.0160     0.0000     0.0160
      643.5852     590.6098    49.21         0.4122    116.8682       0.8239     0.6194     0.4146     9.6333     939.4878    77.6353     0.0154     0.0000     0.0154
      643.7376     590.7622    49.67         0.4124    115.5829       0.8217     0.6180     0.4135     9.6327     939.6707    77.7412     0.0160     0.0000     0.0160
