~Version
VERS .                                       2.0 : LOG ASCII STANDARD - VERSION 2.0
WRAP .                                        NO : WRAP MODE

~Well
STRT .M                                   343.96 : First Index Value
STOP .M                                   915.00 : Last Index Value
STEP .M                                   0.1524 : STEP
NULL .                                   -999.25 : NULL VALUE
CN   .                                    KAROON : Company
WN   .                             1-KPGL-1D-SPS : Well
FN   .                                  S-M-1101 : Field
BASI .                                    SANTOS : Location
LCC  .            Weatherford International Ltd. : Service Company
CTRY .                                    Brazil : Country
LAT  .                             -26:06:26.776 : Latitude
LONG .                             -46:11:00.404 : Longitude
XLOC .M                              7111926.174 : Global X/Y
YLOC .M                               381711.234 : Global X/Y
GDAT .                                     SAD69 : Geodetic Datum
HDAT .                                     SAD69 : Horizontal Datum 
STAT .                                 SAO PAULO : State
CNTY .                                  Offshore : County
APIN .                               86316026760 : API Number
BAP  .M                                  -999.25 : Elevation of Base Antepoco 
BS   .IN                                   26.00 : Bit Diameter
BS1  .IN                                   36.00 : Bit Diameter
BS2  .IN                                   26.00 : Bit Diameter
BS3  .IN                                 -999.25 : Bit Diameter
BS4  .IN                                 -999.25 : Bit Diameter
CBD  .M                                   418.00 : Casing Depth - Driller
CBD1 .M                                   418.00 : Casing Depth - Driller
CBD2 .M                                  -999.25 : Casing Depth - Driller
CBD3 .M                                  -999.25 : Casing Depth - Driller
CBL  .M                                   418.00 : Casing Depth - Logger
CBL1 .M                                   418.00 : Casing Depth - Logger
CBL2 .M                                  -999.25 : Casing Depth - Logger
CBL3 .M                                  -999.25 : Casing Depth - Logger
CS1  .IN                                   30.00 : Casing Diameter
CS2  .IN                                   30.00 : Casing Diameter
CS3  .IN                                 -999.25 : Casing Diameter
CSW  .LB/F                                553.21 : Casing Weight
CSW1 .LB/F                                553.21 : Casing Weight
CSW2 .LB/F                               -999.25 : Casing Weight
CSW3 .LB/F                               -999.25 : Casing Weight
EDF  .M                                    28.00 : Rotary Table Elevation
DMF  .                                        MR : Reference of Depth - Driller
TDD  .M                                   915.00 : Total Depth - Driller
TDD1 .M                                   418.00 : Total Depth - Driller
TDD2 .M                                   915.00 : Total Depth - Driller
TDD3 .M                                  -999.25 : Total Depth - Driller
HIDE .                             1-KPGL-1D-SPS : Header Identifier
MAGD .DEG                                 -20.38 : Magnetic Declination
WITN .                              J.MC CAMBELL : Witness

~Parameter
PDAT .                                        NM : Permanent Datum
APD  .                                        28 : Above Permanent Datum
DREF .                                        RT : Depth Reference
EDR  .M                                       28 : Elevation of Depth Reference
LMF  .                                        RT : Log Measured From
DMF  .                                        RT : Drilling Measured From
EGL  .M                                  -316.00 : Elevation - Ground Level
EKB  .M                                  -999.25 : Elevation - Kelly Bushing
EDF  .M                                       28 : Elevation - Drill Floor
RUN  .                                        01 : Run Name
LCC  .                                    KAROON : Logging Company Code 
LNAM .                                GR/MFR/BAP : Log Names Identificator 
LDAT .                                28/12/2012 : Logging Date
TCS  .HR                                   02:17 : Time Ciculation Stopped
TLAB .HR                                   20:40 : Time Logger At Bottom    
TDD  .M                                   915.00 : Depth - Driller
TDL  .M                                   915.00 : Depth - Logger
BLI  .M                                   898.13 : Bottom Log Interval
TLI  .M                                   418.00 : Top Log Interval
CBD  .M                                   418.00 : Casing Depth - Driller
CBL  .M                                   418.00 : Casing Depth - Logger
BS   .IN                                   26.00 : Bit Size
CS   .IN                                   30.00 : Casing Size Line
CSW  .LB/F                                553.21 : Casing Weight  
DFT  .                               Water Based : Type of Drilling Fluid
DFD  .LB/G                               -999.25 : Drilling Fluid Density
DFV  .S                                  -999.25 : Drilling Fluid Viscosity
DFPH .                                   -999.25 : Drilling Fluid pH
DFL  .C3                                 -999.25 : Drilling Fluid Loss
DFS  .PPM                                -999.25 : Drilling Fluid Salinity
BARI .                                       OFF : Barite On/Off Switch  
RMS  .OHMM                               -999.25 : Mud Resistivity
MST  .DEGC                               -999.25 : Rm Temperature
MSS  .                                  PENEIRAS : Mud Sample Source 
RMFS .OHMM                               -999.25 : Mud Filtrate Resistivity
MFST .DEGC                               -999.25 : Rmf Temperature
MFSS .                                    PRENSA : Mud Filtrate Source 
RMCS .OHMM                               -999.25 : Mud Cake Resistivity
MCST .DEGC                               -999.25 : Rmc Temperature
MCSS .                                    PRENSA : Mud Cake Source 
RMBH .OHMM                               -999.25 : Rm at BHT
STEM .DEGC                               -999.25 : Surface Temperature 
BHT  .DEGC                                  28.9 : Bottom Hole Temperature
MRT  .DEGC                                  28.9 : Max Recorded Temperature
MATR .                                   -999.25 : Neutron Porosity Matrix
MDEN .G/C3                               -999.25 : Matrix Density
FD   .G/C3                               -999.25 : Formation Fluid Density
LTYP .                                       RAW : Log Type
LSRV .                                       LWD : Logging Service  
TPOS .                                         C : Tool Position (centered or variable)
TOOL .                               GAM/MFR/BAP : Tool Strig
R1   .            COUNTY: Offshore : Remark Line 1
R2   .            INICIO DA CIRCULACAO: 28/12/2012 @ 07:36 h;  FIM DA CIRCULACAO: 30/12/2012 @ 02:17 h;  TEMPO TOTAL = 31.8 h. : Remark Line 2
R3   .            TEMPERATURA DE SUPERFICIE = 23.9 degC;  FUNDO = 28.9 degC @ 915 m. : Remark Line 3
R4   .            COORDENADAS DE SUPERFICIE (DATUM SAD69):  N: 7.111.926,174 m;  E: 381.711,234 m. LAT: -26:06:26.776; LONG: -46:11:00.404. /  BASE (DATUM SAD69):  N: 7.112.025,780 m;  E: 381.573,410 m. : Remark Line 4
R5   .            PRIMEIRAS LEITURAS:  HAGRT = 418m; RES = 418m; PRESS= 418m. : Remark Line 5
R6   .            ULTIMAS LEITURAS:  HAGRT = 898.11m; RES = 895.15m; PRESS= 887.37m. : Remark Line 6
R7   .            LAMA:  base agua; peso lama = 12 ppg; Salinidade =  N/A mg/l Total Cloretos; Oil = 0%; Agua= 100%; Baritina = N/A. : Remark Line 7
R8   .            INCLINACAO MAXIMA:  1.14 deg @ 469.82 m. : Remark Line 8
R9   .            DECLINACAO MAGNETICA:  -20.38 deg. : Remark Line 9
ENGI .            SHIDFAR/ANDRADE : Engineer's Names

~Curve
DEPT .M                                          : DEPTH
TVD  .M                                          : True Vertical Depth
ROP  .M/HR                                       : Rate of Penetration
RPD2_X.HR                                        : Exposure Time of 2 MHz 46" PH Calculated Downhole
GR   .GAPI                                       : Gamma Ray Total
RPD2 .OHMM                                       : 2 MHz 46" PH Calculated Downhole
RPM2 .OHMM                                       : 2 MHz 30" PH Calculated Downhole
RPS2 .OHMM                                       : 2 MHz 20" PH Calculated Downhole
ECD  .LB/G                                       : Equivalent Circulating Density
AP   .PSI                                        : Recorded Annulus Pressure
ATMP .DEGF                                       : Recorded Annulus Temperature
TVLATAVG.G                                       : TVM Lateral Average Accelerometer
TVAXAVG.G                                        : TVM Axial Average Accelerometer
TVTOTAVG.G                                       : TVM Average Total Accelerometer

~ASCII
# ...
      380.5428     329.6509    28.89         3.1411     35.7682    4000.0000     0.5379     0.5372    10.1000     534.6958    77.6670     0.1000    -0.0167     0.1069
      380.6952     329.7970    27.00         3.1175     36.0398    4000.0000     0.5419     0.5411    10.0970     534.6310    77.9344     0.1000    -0.0162     0.1067
      380.8476     329.9432    24.20         3.0644     35.1435    4000.0000     0.5482     0.5487    10.0937     534.5543    78.1330     0.1000    -0.0178     0.1074
      381.0000     330.0895    19.85         3.0540     33.1087    4000.0000     0.5498     0.5534    10.0888     534.4050    78.1330     0.1000    -0.0204     0.1084
      381.1524     330.2360    14.15         3.0516     29.0967    4000.0000     0.5507     0.5551    10.0794     534.0897    78.8000     0.1000    -0.0233     0.1097
      381.3048     330.3826     9.02         3.0319     22.5647    4000.0000     0.5544     0.5602    10.0620     533.6009    78.8000     0.1000    -0.0321     0.1133
      381.4572     330.5293     7.26         3.0260     22.5647    4000.0000     0.5570     0.5625    10.0394     533.0175    77.9000     0.1000    -0.0301     0.1125
      381.6096     330.6761     5.84         3.0041     22.5647    4000.0000     0.5640     0.5677    10.0345     533.0679    77.0000     0.1000    -0.0238     0.1099
      381.7620     330.8231     5.22         2.9642     22.5647    4000.0000     0.5788     0.5564    10.0340     533.2349    76.2437     0.1000    -0.0280     0.1116
      381.9144     330.9702     4.79         2.9473     22.5647    4000.0000     0.5864     0.5508    10.0335     533.4083    76.2437     0.1000    -0.0271     0.1112
      382.0668     331.1174     4.73         2.8436     25.8570    4000.0000     0.5954     0.5437    10.0328     533.5539    75.8866     0.1000    -0.0256     0.1106
      382.2192     331.2648     4.61         2.8141     24.4150    4000.0000     0.5951     0.5439    10.0316     533.6775    75.7266     0.1000    -0.0292     0.1121
      382.3716     331.4122     4.53         2.7289     25.1106    4000.0000     0.5958     0.5433    10.0297     533.8143    75.5518     0.1000    -0.0293     0.1121
      382.5240     331.5598     4.47         2.6933     26.1329    4000.0000     0.5884     0.5488    10.0277     533.9174    75.2000     0.1000    -0.0291     0.1120
      382.6764     331.7075     4.39         2.6153     24.4715    4000.0000     0.5719     0.5607    10.0247     533.9942    75.2000     0.1000    -0.0245     0.1102
      382.8288     331.8553     4.34         2.6007     24.4944    4000.0000     0.5751     0.5535    10.0218     534.0687    75.2000     0.1000    -0.0248     0.1103
      382.9812     332.0032     4.69         2.5960     29.2586    4000.0000     0.5761     0.5512    10.0180     534.1709    75.2000     0.1000    -0.0177     0.1074
      383.1336     332.1512     4.94         2.5842     37.7233    4000.0000     0.5787     0.5454    10.0154     534.2829    75.2000     0.1000    -0.0241     0.1100
      383.2860     332.2994     5.93         2.3874     42.6916    4000.0000     0.5654     0.5583    10.0126     534.4280    75.2000     0.1000    -0.0244     0.1101
      383.4384     332.4476     6.87         2.2972     43.8659    4000.0000     0.5593     0.5643    10.0090     534.5636    75.2000     0.1000    -0.0237     0.1098
      383.5908     332.5960     7.54         2.1290     46.9986    4000.0000     0.5841     0.5747    10.0063     534.6945    75.2000     0.1000    -0.0243     0.1101
      383.7432     332.7445     8.17         1.9505     44.9573    4000.0000     0.5863     0.5862    10.0041     534.7601    75.2000     0.1000    -0.0210     0.1087
      383.8956     332.8930     8.45         1.9501     41.9076    4000.0000     0.6008     0.5860    10.0020     534.7922    75.2000     0.1000    -0.0176     0.1073
      384.0480     333.0417     8.89         1.9474     39.0280    4000.0000     0.6366     0.5986    10.0003     534.8466    75.2000     0.1000    -0.0149     0.1062
      384.2004     333.1905     9.35         1.9461     36.9185    4000.0000     0.6508     0.6057     9.9974     534.9563    75.2000     0.1000    -0.0144     0.1060
      384.3528     333.3393     9.50         1.9425     36.0754    4000.0000     0.7031     0.6217     9.9951     535.1983    75.2000     0.1000    -0.0108     0.1045
      384.5052     333.4883     9.50         1.9352     39.0457    4000.0000     0.7659     0.6637     9.9927     535.5172    75.2000     0.1000    -0.0193     0.1080
      384.6576     333.6374    11.79         1.9336     39.8872    4000.0000     0.7819     0.6717     9.9909     535.6749    75.2000     0.1000    -0.0161     0.1067
      384.8100     333.7865    14.11         1.9318     40.9505    4000.0000     0.8011     0.6813     9.9882     535.7941    75.2000     0.1000    -0.0165     0.1068
      384.9624     333.9358    16.24         1.9275     43.4976    4000.0000     0.8555     0.7142     9.9850     535.9330    75.2000     0.1000    -0.0238     0.1099
      385.1148     334.0851    20.23         1.9223     45.1294    4000.0000     0.9086     0.7456     9.9782     535.9293    75.2000     0.1000    -0.0183     0.1076
      385.2672     334.2345    22.50         1.9213     45.1294    4000.0000     0.9210     0.7544     9.9701     535.8406    75.2000     0.1000    -0.0199     0.1082
      385.4196     334.3840    26.63         1.9206     45.1294    4000.0000     0.9257     0.7576     9.9649     535.7268    75.2000     0.1000    -0.0227     0.1094
      385.5720     334.5336    27.95         1.9188     39.5938    4000.0000     0.9388     0.7665     9.9600     535.6229    75.2000     0.1000    -0.0131     0.1054
      385.7244     334.6833    28.01         1.9163     37.3495    4000.0000     0.9196     0.7735     9.9570     535.5966    75.2000     0.1000    -0.0220     0.1091
      385.8768     334.8331    27.04         1.9099     32.7236    4000.0000     0.8748     0.7814     9.9547     535.6404    75.2000     0.1000    -0.0246     0.1102
      386.0292     334.9829    26.06         1.9043     32.7236    4000.0000     0.8620     0.7865     9.9552     535.8761    75.2000     0.1000    -0.0231     0.1096
      386.1816     335.1328    23.93         1.8950     33.7008    4000.0000     0.8521     0.7873     9.9587     536.4080    75.2000     0.1000    -0.0310     0.1129
      386.3340     335.2828    22.51         1.8920     34.8241    4000.0000     0.8513     0.7859     9.9613     536.9002    75.2000     0.1000    -0.0323     0.1134
      386.4864     335.4329    20.21         1.8770     42.1553    4000.0000     0.8626     0.7850     9.9656     537.4326    75.2000     0.1000    -0.0246     0.1102
      386.6388     335.5830    18.61         1.8532     49.5776    4000.0000     0.8741     0.7808     9.9610     537.4978    75.2000     0.1000    -0.0254     0.1105
      386.7912     335.7332    17.22         2.6569     52.8426    4000.0000     0.8089     0.7123     9.9549     537.4767    75.2000     0.1000    -0.0124     0.1051
      386.9436     335.8835    16.05         3.4846     65.1417    4000.0000     0.7313     0.6446     9.9519     537.5601    75.2000     0.1000    -0.0085     0.1035
      387.0960     336.0339    15.46         3.7693     67.3292    4000.0000     0.7008     0.6208     9.9464     537.5250    75.2000     0.1000    -0.0060     0.1025
      387.2484     336.1843    14.19         3.9856     70.9045    4000.0000     0.6792     0.6039     9.9446     537.6619    75.2000     0.1000    -0.0059     0.1024
      387.4008     336.3347    13.30         4.0009     75.2157    4000.0000     0.6777     0.6024     9.9433     537.7916    75.2000     0.1000    -0.0089     0.1037
      387.5532     336.4853    10.58         3.9544     75.2157    4000.0000     0.6834     0.6059     9.9399     537.8756    75.2000     0.1000    -0.0114     0.1047
      387.7056     336.6358     9.87         3.8063     75.2157    4000.0000     0.6994     0.6160     9.9412     538.1841    75.2000     0.1000    -0.0124     0.1051
