~Version
VERS .                                       2.0 : LOG ASCII STANDARD - VERSION 2.0
WRAP .                                        NO : WRAP MODE

~Well
STRT .M                                   343.96 : First Index Value
STOP .M                                   915.00 : Last Index Value
STEP .M                                   0.1524 : STEP
NULL .                                   -999.25 : NULL VALUE
CN   .                                    KAROON : Company
WN   .                             1-KPGL-1D-SPS : Well
FN   .                                  S-M-1101 : Field
BASI .                                    SANTOS : Location
LCC  .            Weatherford International Ltd. : Service Company
CTRY .                                    Brazil : Country
LAT  .                             -26:06:26.776 : Latitude
LONG .                             -46:11:00.404 : Longitude
XLOC .M                              7111926.174 : Global X/Y
YLOC .M                               381711.234 : Global X/Y
GDAT .                                     SAD69 : Geodetic Datum
HDAT .                                     SAD69 : Horizontal Datum 
STAT .                                 SAO PAULO : State
CNTY .                                  Offshore : County
APIN .                               86316026760 : API Number
BAP  .M                                  -999.25 : Elevation of Base Antepoco 
BS   .IN                                   26.00 : Bit Diameter
BS1  .IN                                   36.00 : Bit Diameter
BS2  .IN                                   26.00 : Bit Diameter
BS3  .IN                                 -999.25 : Bit Diameter
BS4  .IN                                 -999.25 : Bit Diameter
CBD  .M                                   418.00 : Casing Depth - Driller
CBD1 .M                                   418.00 : Casing Depth - Driller
CBD2 .M                                  -999.25 : Casing Depth - Driller
CBD3 .M                                  -999.25 : Casing Depth - Driller
CBL  .M                                   418.00 : Casing Depth - Logger
CBL1 .M                                   418.00 : Casing Depth - Logger
CBL2 .M                                  -999.25 : Casing Depth - Logger
CBL3 .M                                  -999.25 : Casing Depth - Logger
CS1  .IN                                   30.00 : Casing Diameter
CS2  .IN                                   30.00 : Casing Diameter
CS3  .IN                                 -999.25 : Casing Diameter
CSW  .LB/F                                553.21 : Casing Weight
CSW1 .LB/F                                553.21 : Casing Weight
CSW2 .LB/F                               -999.25 : Casing Weight
CSW3 .LB/F                               -999.25 : Casing Weight
EDF  .M                                    28.00 : Rotary Table Elevation
DMF  .                                        MR : Reference of Depth - Driller
TDD  .M                                   915.00 : Total Depth - Driller
TDD1 .M                                   418.00 : Total Depth - Driller
TDD2 .M                                   915.00 : Total Depth - Driller
TDD3 .M                                  -999.25 : Total Depth - Driller
HIDE .                             1-KPGL-1D-SPS : Header Identifier
MAGD .DEG                                 -20.38 : Magnetic Declination
WITN .                              J.MC CAMBELL : Witness

~Parameter
PDAT .                                        NM : Permanent Datum
APD  .                                        28 : Above Permanent Datum
DREF .                                        RT : Depth Reference
EDR  .M                                       28 : Elevation of Depth Reference
LMF  .                                        RT : Log Measured From
DMF  .                                        RT : Drilling Measured From
EGL  .M                                  -316.00 : Elevation - Ground Level
EKB  .M                                  -999.25 : Elevation - Kelly Bushing
EDF  .M                                       28 : Elevation - Drill Floor
RUN  .                                        01 : Run Name
LCC  .                                    KAROON : Logging Company Code 
LNAM .                                GR/MFR/BAP : Log Names Identificator 
LDAT .                                28/12/2012 : Logging Date
TCS  .HR                                   02:17 : Time Ciculation Stopped
TLAB .HR                                   20:40 : Time Logger At Bottom    
TDD  .M                                   915.00 : Depth - Driller
TDL  .M                                   915.00 : Depth - Logger
BLI  .M                                   898.13 : Bottom Log Interval
TLI  .M                                   418.00 : Top Log Interval
CBD  .M                                   418.00 : Casing Depth - Driller
CBL  .M                                   418.00 : Casing Depth - Logger
BS   .IN                                   26.00 : Bit Size
CS   .IN                                   30.00 : Casing Size Line
CSW  .LB/F                                553.21 : Casing Weight  
DFT  .                               Water Based : Type of Drilling Fluid
DFD  .LB/G                               -999.25 : Drilling Fluid Density
DFV  .S                                  -999.25 : Drilling Fluid Viscosity
DFPH .                                   -999.25 : Drilling Fluid pH
DFL  .C3                                 -999.25 : Drilling Fluid Loss
DFS  .PPM                                -999.25 : Drilling Fluid Salinity
BARI .                                       OFF : Barite On/Off Switch  
RMS  .OHMM                               -999.25 : Mud Resistivity
MST  .DEGC                               -999.25 : Rm Temperature
MSS  .                                  PENEIRAS : Mud Sample Source 
RMFS .OHMM                               -999.25 : Mud Filtrate Resistivity
MFST .DEGC                               -999.25 : Rmf Temperature
MFSS .                                    PRENSA : Mud Filtrate Source 
RMCS .OHMM                               -999.25 : Mud Cake Resistivity
MCST .DEGC                               -999.25 : Rmc Temperature
MCSS .                                    PRENSA : Mud Cake Source 
RMBH .OHMM                               -999.25 : Rm at BHT
STEM .DEGC                               -999.25 : Surface Temperature 
BHT  .DEGC                                  28.9 : Bottom Hole Temperature
MRT  .DEGC                                  28.9 : Max Recorded Temperature
MATR .                                   -999.25 : Neutron Porosity Matrix
MDEN .G/C3                               -999.25 : Matrix Density
FD   .G/C3                               -999.25 : Formation Fluid Density
LTYP .                                       RAW : Log Type
LSRV .                                       LWD : Logging Service  
TPOS .                                         C : Tool Position (centered or variable)
TOOL .                               GAM/MFR/BAP : Tool Strig
R1   .            COUNTY: Offshore : Remark Line 1
R2   .            INICIO DA CIRCULACAO: 28/12/2012 @ 07:36 h;  FIM DA CIRCULACAO: 30/12/2012 @ 02:17 h;  TEMPO TOTAL = 31.8 h. : Remark Line 2
R3   .            TEMPERATURA DE SUPERFICIE = 23.9 degC;  FUNDO = 28.9 degC @ 915 m. : Remark Line 3
R4   .            COORDENADAS DE SUPERFICIE (DATUM SAD69):  N: 7.111.926,174 m;  E: 381.711,234 m. LAT: -26:06:26.776; LONG: -46:11:00.404. /  BASE (DATUM SAD69):  N: 7.112.025,780 m;  E: 381.573,410 m. : Remark Line 4
R5   .            PRIMEIRAS LEITURAS:  HAGRT = 418m; RES = 418m; PRESS= 418m. : Remark Line 5
R6   .            ULTIMAS LEITURAS:  HAGRT = 898.11m; RES = 895.15m; PRESS= 887.37m. : Remark Line 6
R7   .            LAMA:  base agua; peso lama = 12 ppg; Salinidade =  N/A mg/l Total Cloretos; Oil = 0%; Agua= 100%; Baritina = N/A. : Remark Line 7
R8   .            INCLINACAO MAXIMA:  1.14 deg @ 469.82 m. : Remark Line 8
R9   .            DECLINACAO MAGNETICA:  -20.38 deg. : Remark Line 9
ENGI .            SHIDFAR/ANDRADE : Engineer's Names

~Curve
DEPT .M                                          : DEPTH
TVD  .M                                          : True Vertical Depth
ROP  .M/HR                                       : Rate of Penetration
RPD2_X.HR                                        : Exposure Time of 2 MHz 46" PH Calculated Downhole
GR   .GAPI                                       : Gamma Ray Total
RPD2 .OHMM                                       : 2 MHz 46" PH Calculated Downhole
RPM2 .OHMM                                       : 2 MHz 30" PH Calculated Downhole
RPS2 .OHMM                                       : 2 MHz 20" PH Calculated Downhole
ECD  .LB/G                                       : Equivalent Circulating Density
AP   .PSI                                        : Recorded Annulus Pressure
ATMP .DEGF                                       : Recorded Annulus Temperature
TVLATAVG.G                                       : TVM Lateral Average Accelerometer
TVAXAVG.G                                        : TVM Axial Average Accelerometer
TVTOTAVG.G                                       : TVM Average Total Accelerometer

~ASCII
# ...
      453.6948     400.7339   701.66         0.5427     67.7332       0.7008     0.4751     0.2933     9.9059     644.6156    83.5250     0.0000     0.0000     0.0000
      453.8472     400.8863   682.06         0.5466     67.9157       0.7006     0.4773     0.2954     9.9118     645.1875    83.3000     0.0000     0.0000     0.0000
      453.9996     401.0386   490.61         0.5523     68.1156       0.7010     0.4800     0.2992     9.9180     645.8664    83.0750     0.0000     0.0000     0.0000
      454.1520     401.1910   327.43         0.5562     67.6293       0.7037     0.4834     0.3019     9.9133     645.8267    82.8500     0.0000     0.0000     0.0000
      454.3044     401.3434   227.34         0.5608     65.9257       0.7046     0.4858     0.3034     9.9075     645.7047    82.6250     0.0000     0.0000     0.0000
      454.4568     401.4958   181.28         0.5658     65.3968       0.7055     0.4821     0.2994     9.9008     645.5219    82.4000     0.0000     0.0000     0.0000
      454.6092     401.6481    58.94         0.5737     63.7054       0.7058     0.4782     0.2937     9.8915     645.2121    82.4000     0.0000     0.0000     0.0000
      454.7616     401.8005    58.94         0.5770     62.9621       0.7036     0.4724     0.2871     9.8839     644.9504    82.4000     0.0000     0.0000     0.0000
      454.9140     401.9529    58.94         0.5819     64.1817       0.7029     0.4657     0.2797     9.8773     644.7809    82.4000     0.0000     0.0000     0.0000
      455.0664     402.1053    58.94         0.5874     62.4128       0.7019     0.4617     0.2746     9.8693     644.6294    82.4000     0.0000     0.0000     0.0000
      455.2188     402.2576    62.35         0.5947     64.1983       0.7024     0.4592     0.2729     9.8580     644.3694    81.5037     0.0000     0.0000     0.0000
      455.3712     402.4100    70.12         0.6020     64.5412       0.7019     0.4587     0.2729     9.8448     643.9784    80.6000     0.0000     0.0000     0.0000
      455.5236     402.5624    79.11         0.6085     66.5980       0.7018     0.4603     0.2739     9.8397     643.8652    80.6000     0.0000     0.0000     0.0000
      455.6760     402.7147    94.27         0.6141     68.4563       0.7028     0.4608     0.2753     9.8373     643.8170    80.6000     0.0000     0.0000     0.0000
      455.8284     402.8671   100.43         0.6215     71.9201       0.7052     0.4643     0.2766     9.8360     643.8148    80.6000     0.0000     0.0000     0.0000
      455.9808     403.0195   113.41         0.6268     72.2039       0.7075     0.4657     0.2777     9.8354     643.8632    80.6000     0.0000    -0.0013     0.0013
      456.1332     403.1719   115.78         0.6338     73.0936       0.7144     0.4692     0.2796     9.8354     643.9684    81.4051     0.0014    -0.0018     0.0032
      456.2856     403.3242   116.72         0.6409     73.2263       0.7207     0.4741     0.2805     9.8365     644.2189    81.6767     0.0033    -0.0025     0.0058
      456.4380     403.4766   119.06         0.6471     72.8044       0.7258     0.4767     0.2817     9.8395     644.7614    82.4000     0.0042    -0.0025     0.0068
      456.5904     403.6290   119.06         0.6546     69.7142       0.7319     0.4799     0.2827     9.8444     645.4496    82.4000     0.0057    -0.0018     0.0074
      456.7428     403.7813   119.06         0.6597     66.6152       0.7311     0.4816     0.2826     9.8460     645.9006    82.4000     0.0054    -0.0033     0.0087
      456.8952     403.9337   119.06         0.6664     64.1121       0.7310     0.4824     0.2841     9.8461     646.1632    82.4000     0.0048    -0.0027     0.0075
      457.0476     404.0861   119.06         0.6731     61.8089       0.7254     0.4816     0.2848     9.8447     646.3574    82.4000     0.0037    -0.0035     0.0072
      457.2000     404.2385   119.53         0.6793     62.7355       0.7206     0.4813     0.2853     9.8434     646.5516    81.9842     0.0019    -0.0048     0.0067
      457.3524     404.3908   120.19         0.6856     64.2243       0.7147     0.4782     0.2871     9.8424     646.7002    81.5684     0.0013    -0.0037     0.0051
      457.5048     404.5432   121.68         0.6913     65.7839       0.7083     0.4757     0.2870     9.8414     646.8121    81.5684     0.0010    -0.0071     0.0081
      457.6572     404.6956   123.01         0.6956     68.4766       0.7061     0.4719     0.2874     9.8406     646.9545    81.5684     0.0000    -0.0082     0.0082
      457.8096     404.8479   124.74         0.7019     69.2879       0.6983     0.4677     0.2844     9.8399     647.1297    81.4316     0.0000    -0.0100     0.0100
      457.9620     405.0003   124.99         0.7084     72.4844       0.6917     0.4647     0.2817     9.8396     647.4101    81.4316     0.0000    -0.0161     0.0161
      458.1144     405.1527   125.20         0.7133     75.2414       0.6869     0.4624     0.2806     9.8386     647.7820    81.4316     0.0000    -0.0172     0.0172
      458.2668     405.3051   125.54         0.7190     73.6822       0.6831     0.4615     0.2803     9.8390     648.0982    80.6000     0.0000    -0.0190     0.0190
      458.4192     405.4574   115.19         0.7234     72.5815       0.6835     0.4627     0.2827     9.8387     648.2720    80.6000     0.0000    -0.0183     0.0183
      458.5716     405.6098   105.12         0.7289     72.1588       0.6826     0.4639     0.2866     9.8381     648.4691    80.6000     0.0000    -0.0191     0.0191
      458.7240     405.7622    89.44         0.7357     72.1531       0.6828     0.4651     0.2905     9.8379     648.6605    80.6000     0.0000    -0.0208     0.0208
      458.8764     405.9145    72.82         0.7443     70.9258       0.6813     0.4661     0.2953     9.8369     648.8459    80.6000     0.0006    -0.0230     0.0236
      459.0288     406.0669    55.81         0.7491     71.4374       0.6786     0.4653     0.2969     9.8362     649.1351    80.6000     0.0009    -0.0246     0.0255
      459.1812     406.2193    42.26         0.7576     71.8317       0.6777     0.4644     0.2973     9.8356     649.3763    80.6000     0.0013    -0.0244     0.0258
      459.3336     406.3717    27.05         0.7644     71.1713       0.6786     0.4642     0.2986     9.8341     649.5240    80.6000     0.0019    -0.0226     0.0245
      459.4860     406.5240    30.04         0.7774     70.5263       0.6769     0.4648     0.2979     9.8329     649.6670    80.6000     0.0016    -0.0167     0.0183
      459.6384     406.6764    32.31         0.7851     71.0506       0.6773     0.4645     0.2969     9.8305     649.7493    80.6000     0.0012    -0.0153     0.0165
      459.7908     406.8288    34.34         0.7932     70.2820       0.6770     0.4655     0.2955     9.8276     649.8090    80.6000     0.0017    -0.0162     0.0179
      459.9432     406.9811    35.75         0.7992     71.7871       0.6740     0.4641     0.2937     9.8240     649.8912    80.6000     0.0012    -0.0173     0.0185
      460.0956     407.1335    36.33         0.8099     73.0272       0.6686     0.4581     0.2902     9.8206     649.9644    80.6000     0.0016    -0.0236     0.0252
      460.2480     407.2859    36.33         0.8211     73.3597       0.6618     0.4539     0.2859     9.8187     650.0455    80.6000     0.0022    -0.0305     0.0327
      460.4004     407.4383    36.92         0.8316     74.8123       0.6553     0.4461     0.2822     9.8167     650.1188    80.6000     0.0018    -0.0372     0.0389
      460.5528     407.5906    37.94         0.8400     74.6057       0.6545     0.4473     0.2875     9.8147     650.2634    80.6000     0.0013    -0.0480     0.0494
      460.7052     407.7430    38.83         0.8476     76.5905       0.6613     0.4653     0.3115     9.8119     650.3705    80.6000     0.0010    -0.0531     0.0541
      460.8576     407.8954    40.57         0.8568     77.7173       0.6802     0.5117     0.3767     9.8100     650.5023    80.6000     0.0000    -0.0568     0.0568
