~Version
VERS .                                       2.0 : LOG ASCII STANDARD - VERSION 2.0
WRAP .                                        NO : WRAP MODE

~Well
STRT .M                                   343.96 : First Index Value
STOP .M                                   915.00 : Last Index Value
STEP .M                                   0.1524 : STEP
NULL .                                   -999.25 : NULL VALUE
CN   .                                    KAROON : Company
WN   .                             1-KPGL-1D-SPS : Well
FN   .                                  S-M-1101 : Field
BASI .                                    SANTOS : Location
LCC  .            Weatherford International Ltd. : Service Company
CTRY .                                    Brazil : Country
LAT  .                             -26:06:26.776 : Latitude
LONG .                             -46:11:00.404 : Longitude
XLOC .M                              7111926.174 : Global X/Y
YLOC .M                               381711.234 : Global X/Y
GDAT .                                     SAD69 : Geodetic Datum
HDAT .                                     SAD69 : Horizontal Datum 
STAT .                                 SAO PAULO : State
CNTY .                                  Offshore : County
APIN .                               86316026760 : API Number
BAP  .M                                  -999.25 : Elevation of Base Antepoco 
BS   .IN                                   26.00 : Bit Diameter
BS1  .IN                                   36.00 : Bit Diameter
BS2  .IN                                   26.00 : Bit Diameter
BS3  .IN                                 -999.25 : Bit Diameter
BS4  .IN                                 -999.25 : Bit Diameter
CBD  .M                                   418.00 : Casing Depth - Driller
CBD1 .M                                   418.00 : Casing Depth - Driller
CBD2 .M                                  -999.25 : Casing Depth - Driller
CBD3 .M                                  -999.25 : Casing Depth - Driller
CBL  .M                                   418.00 : Casing Depth - Logger
CBL1 .M                                   418.00 : Casing Depth - Logger
CBL2 .M                                  -999.25 : Casing Depth - Logger
CBL3 .M                                  -999.25 : Casing Depth - Logger
CS1  .IN                                   30.00 : Casing Diameter
CS2  .IN                                   30.00 : Casing Diameter
CS3  .IN                                 -999.25 : Casing Diameter
CSW  .LB/F                                553.21 : Casing Weight
CSW1 .LB/F                                553.21 : Casing Weight
CSW2 .LB/F                               -999.25 : Casing Weight
CSW3 .LB/F                               -999.25 : Casing Weight
EDF  .M                                    28.00 : Rotary Table Elevation
DMF  .                                        MR : Reference of Depth - Driller
TDD  .M                                   915.00 : Total Depth - Driller
TDD1 .M                                   418.00 : Total Depth - Driller
TDD2 .M                                   915.00 : Total Depth - Driller
TDD3 .M                                  -999.25 : Total Depth - Driller
HIDE .                             1-KPGL-1D-SPS : Header Identifier
MAGD .DEG                                 -20.38 : Magnetic Declination
WITN .                              J.MC CAMBELL : Witness

~Parameter
PDAT .                                        NM : Permanent Datum
APD  .                                        28 : Above Permanent Datum
DREF .                                        RT : Depth Reference
EDR  .M                                       28 : Elevation of Depth Reference
LMF  .                                        RT : Log Measured From
DMF  .                                        RT : Drilling Measured From
EGL  .M                                  -316.00 : Elevation - Ground Level
EKB  .M                                  -999.25 : Elevation - Kelly Bushing
EDF  .M                                       28 : Elevation - Drill Floor
RUN  .                                        01 : Run Name
LCC  .                                    KAROON : Logging Company Code 
LNAM .                                GR/MFR/BAP : Log Names Identificator 
LDAT .                                28/12/2012 : Logging Date
TCS  .HR                                   02:17 : Time Ciculation Stopped
TLAB .HR                                   20:40 : Time Logger At Bottom    
TDD  .M                                   915.00 : Depth - Driller
TDL  .M                                   915.00 : Depth - Logger
BLI  .M                                   898.13 : Bottom Log Interval
TLI  .M                                   418.00 : Top Log Interval
CBD  .M                                   418.00 : Casing Depth - Driller
CBL  .M                                   418.00 : Casing Depth - Logger
BS   .IN                                   26.00 : Bit Size
CS   .IN                                   30.00 : Casing Size Line
CSW  .LB/F                                553.21 : Casing Weight  
DFT  .                               Water Based : Type of Drilling Fluid
DFD  .LB/G                               -999.25 : Drilling Fluid Density
DFV  .S                                  -999.25 : Drilling Fluid Viscosity
DFPH .                                   -999.25 : Drilling Fluid pH
DFL  .C3                                 -999.25 : Drilling Fluid Loss
DFS  .PPM                                -999.25 : Drilling Fluid Salinity
BARI .                                       OFF : Barite On/Off Switch  
RMS  .OHMM                               -999.25 : Mud Resistivity
MST  .DEGC                               -999.25 : Rm Temperature
MSS  .                                  PENEIRAS : Mud Sample Source 
RMFS .OHMM                               -999.25 : Mud Filtrate Resistivity
MFST .DEGC                               -999.25 : Rmf Temperature
MFSS .                                    PRENSA : Mud Filtrate Source 
RMCS .OHMM                               -999.25 : Mud Cake Resistivity
MCST .DEGC                               -999.25 : Rmc Temperature
MCSS .                                    PRENSA : Mud Cake Source 
RMBH .OHMM                               -999.25 : Rm at BHT
STEM .DEGC                               -999.25 : Surface Temperature 
BHT  .DEGC                                  28.9 : Bottom Hole Temperature
MRT  .DEGC                                  28.9 : Max Recorded Temperature
MATR .                                   -999.25 : Neutron Porosity Matrix
MDEN .G/C3                               -999.25 : Matrix Density
FD   .G/C3                               -999.25 : Formation Fluid Density
LTYP .                                       RAW : Log Type
LSRV .                                       LWD : Logging Service  
TPOS .                                         C : Tool Position (centered or variable)
TOOL .                               GAM/MFR/BAP : Tool Strig
R1   .            COUNTY: Offshore : Remark Line 1
R2   .            INICIO DA CIRCULACAO: 28/12/2012 @ 07:36 h;  FIM DA CIRCULACAO: 30/12/2012 @ 02:17 h;  TEMPO TOTAL = 31.8 h. : Remark Line 2
R3   .            TEMPERATURA DE SUPERFICIE = 23.9 degC;  FUNDO = 28.9 degC @ 915 m. : Remark Line 3
R4   .            COORDENADAS DE SUPERFICIE (DATUM SAD69):  N: 7.111.926,174 m;  E: 381.711,234 m. LAT: -26:06:26.776; LONG: -46:11:00.404. /  BASE (DATUM SAD69):  N: 7.112.025,780 m;  E: 381.573,410 m. : Remark Line 4
R5   .            PRIMEIRAS LEITURAS:  HAGRT = 418m; RES = 418m; PRESS= 418m. : Remark Line 5
R6   .            ULTIMAS LEITURAS:  HAGRT = 898.11m; RES = 895.15m; PRESS= 887.37m. : Remark Line 6
R7   .            LAMA:  base agua; peso lama = 12 ppg; Salinidade =  N/A mg/l Total Cloretos; Oil = 0%; Agua= 100%; Baritina = N/A. : Remark Line 7
R8   .            INCLINACAO MAXIMA:  1.14 deg @ 469.82 m. : Remark Line 8
R9   .            DECLINACAO MAGNETICA:  -20.38 deg. : Remark Line 9
ENGI .            SHIDFAR/ANDRADE : Engineer's Names

~Curve
DEPT .M                                          : DEPTH
TVD  .M                                          : True Vertical Depth
ROP  .M/HR                                       : Rate of Penetration
RPD2_X.HR                                        : Exposure Time of 2 MHz 46" PH Calculated Downhole
GR   .GAPI                                       : Gamma Ray Total
RPD2 .OHMM                                       : 2 MHz 46" PH Calculated Downhole
RPM2 .OHMM                                       : 2 MHz 30" PH Calculated Downhole
RPS2 .OHMM                                       : 2 MHz 20" PH Calculated Downhole
ECD  .LB/G                                       : Equivalent Circulating Density
AP   .PSI                                        : Recorded Annulus Pressure
ATMP .DEGF                                       : Recorded Annulus Temperature
TVLATAVG.G                                       : TVM Lateral Average Accelerometer
TVAXAVG.G                                        : TVM Axial Average Accelerometer
TVTOTAVG.G                                       : TVM Average Total Accelerometer

~ASCII
# ...
      819.4548     766.4780    64.21         0.3329     65.4258       0.7257     0.5287     0.3481     9.7105    1238.1301    80.6000     0.0175     0.0000     0.0175
      819.6072     766.6304    64.77         0.3325     67.1313       0.7328     0.5340     0.3512     9.7115    1238.4838    80.6000     0.0189     0.0000     0.0189
      819.7596     766.7828    64.99         0.3318     68.3624       0.7451     0.5449     0.3576     9.7124    1238.7848    80.6000     0.0234     0.0000     0.0234
      819.9120     766.9352    64.69         0.3317     71.0717       0.7461     0.5488     0.3613     9.7133    1239.1478    80.6000     0.0223     0.0000     0.0223
      820.0644     767.0876    64.35         0.3318     72.2465       0.7429     0.5488     0.3622     9.7140    1239.4992    80.6000     0.0226     0.0000     0.0226
      820.2168     767.2400    62.35         0.3318     72.9386       0.7352     0.5475     0.3642     9.7134    1239.7347    80.6000     0.0218     0.0000     0.0218
      820.3692     767.3924    59.70         0.3317     71.9511       0.7320     0.5460     0.3646     9.7130    1239.9655    80.6000     0.0139     0.0000     0.0139
      820.5216     767.5448    58.31         0.3304     72.5747       0.7273     0.5443     0.3661     9.7125    1240.1097    80.6000     0.0155     0.0000     0.0155
      820.6740     767.6972    54.90         0.3299     77.7040       0.7244     0.5422     0.3673     9.7128    1240.4007    80.6000     0.0096     0.0000     0.0096
      820.8264     767.8496    54.90         0.3293     78.9502       0.7281     0.5437     0.3676     9.7138    1240.8202    80.6000     0.0106     0.0000     0.0106
      820.9788     768.0020    56.40         0.3298     85.3871       0.7191     0.5385     0.3675     9.7148    1241.1990    80.6000     0.0113     0.0000     0.0113
      821.1312     768.1544    57.16         0.3304     93.5836       0.7129     0.5349     0.3664     9.7160    1241.5689    80.6000     0.0082     0.0000     0.0082
      821.2836     768.3068    59.82         0.3331     97.0875       0.7131     0.5358     0.3684     9.7168    1241.8826    80.6000     0.0085     0.0000     0.0085
      821.4360     768.4592    63.52         0.3345     99.1551       0.7076     0.5331     0.3687     9.7175    1242.2843    80.6000     0.0054     0.0000     0.0054
      821.5884     768.6116    65.67         0.3359    100.7290       0.7134     0.5366     0.3696     9.7183    1242.6056    80.6000     0.0042     0.0000     0.0042
      821.7408     768.7640    68.11         0.3911     93.7187       0.7186     0.5323     0.3592     9.7187    1242.9087    80.6000     0.0057     0.0000     0.0057
      821.8932     768.9164    69.44         0.4800     91.1486       0.7173     0.5187     0.3404     9.7188    1243.2213    80.6000     0.0063     0.0000     0.0063
      822.0456     769.0688    69.44         0.5679     87.5462       0.7170     0.5065     0.3228     9.7195    1243.5240    80.6000     0.0086     0.0000     0.0086
      822.1980     769.2212    67.84         0.6480     80.2773       0.7130     0.4922     0.3040     9.7197    1243.7687    80.6000     0.0099     0.0000     0.0099
      822.3504     769.3736    63.86         0.7095     79.1151       0.7028     0.4751     0.2883     9.7209    1244.2128    80.6000     0.0097     0.0000     0.0097
      822.5028     769.5260    61.29         0.7179     78.4885       0.6982     0.4706     0.2850     9.7224    1244.6919    80.6000     0.0091     0.0000     0.0091
      822.6552     769.6784    58.80         0.7471     79.0877       0.6900     0.4615     0.2754     9.7239    1245.1158    80.6000     0.0066     0.0000     0.0066
      822.8076     769.8308    57.21         0.7497     82.8897       0.6831     0.4564     0.2715     9.7255    1245.5229    80.6000     0.0050     0.0000     0.0050
      822.9600     769.9832    58.14         0.7502     84.5252       0.6768     0.4521     0.2687     9.7267    1245.9773    80.6000     0.0021     0.0000     0.0021
      823.1124     770.1356    59.28         0.7507     89.4847       0.6746     0.4506     0.2669     9.7271    1246.2086    80.6000     0.0000     0.0000     0.0000
      823.2648     770.2880    60.26         0.7514     94.0137       0.6765     0.4510     0.2682     9.7277    1246.5280    80.6000     0.0049     0.0000     0.0049
      823.4172     770.4404    61.70         0.7511     91.9917       0.6768     0.4510     0.2690     9.7282    1246.9190    80.6000     0.0069     0.0000     0.0069
      823.5696     770.5928    62.60         0.7517     90.1376       0.6802     0.4538     0.2707     9.7283    1247.2029    80.6000     0.0120     0.0000     0.0120
      823.7220     770.7452    63.66         0.7520     86.1722       0.6830     0.4556     0.2725     9.7282    1247.3910    80.6000     0.0147     0.0000     0.0147
      823.8744     770.8976    64.69         0.7525     85.6401       0.6866     0.4605     0.2767     9.7281    1247.6362    80.6000     0.0149     0.0000     0.0149
      824.0268     771.0500    64.69         0.7534     87.2749       0.6854     0.4676     0.2838     9.7283    1247.9402    80.6000     0.0134     0.0000     0.0134
      824.1792     771.2024    64.10         0.7531     91.0653       0.6782     0.4707     0.2904     9.7288    1248.2339    80.6000     0.0090     0.0000     0.0090
      824.3316     771.3548    63.83         0.7529     94.8156       0.6692     0.4754     0.2992     9.7296    1248.6323    80.6000     0.0075     0.0000     0.0075
      824.4840     771.5072    62.71         0.7534     97.8758       0.6677     0.4791     0.3043     9.7313    1249.1109    80.6000     0.0061     0.0000     0.0061
      824.6364     771.6596    61.85         0.7531     95.2032       0.6667     0.4814     0.3098     9.7322    1249.4551    80.6000     0.0037     0.0000     0.0037
      824.7888     771.8120    60.88         0.7535     90.0745       0.6722     0.4872     0.3157     9.7327    1249.6913    80.6000     0.0040     0.0000     0.0040
      824.9412     771.9643    60.06         0.7539     84.6763       0.6791     0.4930     0.3226     9.7336    1250.0918    80.6000     0.0026     0.0000     0.0026
      825.0936     772.1167    59.89         0.7537     77.0881       0.6853     0.4995     0.3307     9.7333    1250.3183    80.6000     0.0051     0.0000     0.0051
      825.2460     772.2691    60.20         0.7537     68.0714       0.6905     0.5047     0.3363     9.7330    1250.5065    80.6000     0.0074     0.0000     0.0074
      825.3984     772.4215    60.64         0.7539     65.5217       0.6953     0.5092     0.3421     9.7322    1250.7502    80.6000     0.0079     0.0000     0.0079
      825.5508     772.5739    61.34         0.7538     60.4259       0.6941     0.5106     0.3459     9.7316    1250.9327    80.6000     0.0085     0.0000     0.0085
      825.7032     772.7263    61.55         0.7540     57.2604       0.6942     0.5106     0.3473     9.7312    1251.0886    80.6000     0.0083     0.0000     0.0083
      825.8556     772.8787    62.01         0.7548     58.3725       0.6905     0.5101     0.3485     9.7306    1251.2256    80.6000     0.0070     0.0000     0.0070
      826.0080     773.0311    62.01         0.7554     59.5913       0.6940     0.5144     0.3523     9.7303    1251.4840    80.6000     0.0024     0.0000     0.0024
      826.1604     773.1835    62.41         0.7562     66.9208       0.6981     0.5201     0.3590     9.7305    1251.7373    80.6000     0.0000     0.0000     0.0000
      826.3128     773.3359    63.10         0.7566     71.2926       0.7003     0.5240     0.3629     9.7305    1252.0245    80.6000     0.0000     0.0000     0.0000
      826.4652     773.4883    63.79         0.7566     73.5246       0.7058     0.5292     0.3667     9.7310    1252.4097    80.6000     0.0000     0.0000     0.0000
      826.6176     773.6407    64.50         0.7560     77.1622       0.7058     0.5283     0.3674     9.7321    1252.7177    80.6000     0.0016     0.0000     0.0016
