~Version
VERS .                                       2.0 : LOG ASCII STANDARD - VERSION 2.0
WRAP .                                        NO : WRAP MODE

~Well
STRT .M                                   343.96 : First Index Value
STOP .M                                   915.00 : Last Index Value
STEP .M                                   0.1524 : STEP
NULL .                                   -999.25 : NULL VALUE
CN   .                                    KAROON : Company
WN   .                             1-KPGL-1D-SPS : Well
FN   .                                  S-M-1101 : Field
BASI .                                    SANTOS : Location
LCC  .            Weatherford International Ltd. : Service Company
CTRY .                                    Brazil : Country
LAT  .                             -26:06:26.776 : Latitude
LONG .                             -46:11:00.404 : Longitude
XLOC .M                              7111926.174 : Global X/Y
YLOC .M                               381711.234 : Global X/Y
GDAT .                                     SAD69 : Geodetic Datum
HDAT .                                     SAD69 : Horizontal Datum 
STAT .                                 SAO PAULO : State
CNTY .                                  Offshore : County
APIN .                               86316026760 : API Number
BAP  .M                                  -999.25 : Elevation of Base Antepoco 
BS   .IN                                   26.00 : Bit Diameter
BS1  .IN                                   36.00 : Bit Diameter
BS2  .IN                                   26.00 : Bit Diameter
BS3  .IN                                 -999.25 : Bit Diameter
BS4  .IN                                 -999.25 : Bit Diameter
CBD  .M                                   418.00 : Casing Depth - Driller
CBD1 .M                                   418.00 : Casing Depth - Driller
CBD2 .M                                  -999.25 : Casing Depth - Driller
CBD3 .M                                  -999.25 : Casing Depth - Driller
CBL  .M                                   418.00 : Casing Depth - Logger
CBL1 .M                                   418.00 : Casing Depth - Logger
CBL2 .M                                  -999.25 : Casing Depth - Logger
CBL3 .M                                  -999.25 : Casing Depth - Logger
CS1  .IN                                   30.00 : Casing Diameter
CS2  .IN                                   30.00 : Casing Diameter
CS3  .IN                                 -999.25 : Casing Diameter
CSW  .LB/F                                553.21 : Casing Weight
CSW1 .LB/F                                553.21 : Casing Weight
CSW2 .LB/F                               -999.25 : Casing Weight
CSW3 .LB/F                               -999.25 : Casing Weight
EDF  .M                                    28.00 : Rotary Table Elevation
DMF  .                                        MR : Reference of Depth - Driller
TDD  .M                                   915.00 : Total Depth - Driller
TDD1 .M                                   418.00 : Total Depth - Driller
TDD2 .M                                   915.00 : Total Depth - Driller
TDD3 .M                                  -999.25 : Total Depth - Driller
HIDE .                             1-KPGL-1D-SPS : Header Identifier
MAGD .DEG                                 -20.38 : Magnetic Declination
WITN .                              J.MC CAMBELL : Witness

~Parameter
PDAT .                                        NM : Permanent Datum
APD  .                                        28 : Above Permanent Datum
DREF .                                        RT : Depth Reference
EDR  .M                                       28 : Elevation of Depth Reference
LMF  .                                        RT : Log Measured From
DMF  .                                        RT : Drilling Measured From
EGL  .M                                  -316.00 : Elevation - Ground Level
EKB  .M                                  -999.25 : Elevation - Kelly Bushing
EDF  .M                                       28 : Elevation - Drill Floor
RUN  .                                        01 : Run Name
LCC  .                                    KAROON : Logging Company Code 
LNAM .                                GR/MFR/BAP : Log Names Identificator 
LDAT .                                28/12/2012 : Logging Date
TCS  .HR                                   02:17 : Time Ciculation Stopped
TLAB .HR                                   20:40 : Time Logger At Bottom    
TDD  .M                                   915.00 : Depth - Driller
TDL  .M                                   915.00 : Depth - Logger
BLI  .M                                   898.13 : Bottom Log Interval
TLI  .M                                   418.00 : Top Log Interval
CBD  .M                                   418.00 : Casing Depth - Driller
CBL  .M                                   418.00 : Casing Depth - Logger
BS   .IN                                   26.00 : Bit Size
CS   .IN                                   30.00 : Casing Size Line
CSW  .LB/F                                553.21 : Casing Weight  
DFT  .                               Water Based : Type of Drilling Fluid
DFD  .LB/G                               -999.25 : Drilling Fluid Density
DFV  .S                                  -999.25 : Drilling Fluid Viscosity
DFPH .                                   -999.25 : Drilling Fluid pH
DFL  .C3                                 -999.25 : Drilling Fluid Loss
DFS  .PPM                                -999.25 : Drilling Fluid Salinity
BARI .                                       OFF : Barite On/Off Switch  
RMS  .OHMM                               -999.25 : Mud Resistivity
MST  .DEGC                               -999.25 : Rm Temperature
MSS  .                                  PENEIRAS : Mud Sample Source 
RMFS .OHMM                               -999.25 : Mud Filtrate Resistivity
MFST .DEGC                               -999.25 : Rmf Temperature
MFSS .                                    PRENSA : Mud Filtrate Source 
RMCS .OHMM                               -999.25 : Mud Cake Resistivity
MCST .DEGC                               -999.25 : Rmc Temperature
MCSS .                                    PRENSA : Mud Cake Source 
RMBH .OHMM                               -999.25 : Rm at BHT
STEM .DEGC                               -999.25 : Surface Temperature 
BHT  .DEGC                                  28.9 : Bottom Hole Temperature
MRT  .DEGC                                  28.9 : Max Recorded Temperature
MATR .                                   -999.25 : Neutron Porosity Matrix
MDEN .G/C3                               -999.25 : Matrix Density
FD   .G/C3                               -999.25 : Formation Fluid Density
LTYP .                                       RAW : Log Type
LSRV .                                       LWD : Logging Service  
TPOS .                                         C : Tool Position (centered or variable)
TOOL .                               GAM/MFR/BAP : Tool Strig
R1   .            COUNTY: Offshore : Remark Line 1
R2   .            INICIO DA CIRCULACAO: 28/12/2012 @ 07:36 h;  FIM DA CIRCULACAO: 30/12/2012 @ 02:17 h;  TEMPO TOTAL = 31.8 h. : Remark Line 2
R3   .            TEMPERATURA DE SUPERFICIE = 23.9 degC;  FUNDO = 28.9 degC @ 915 m. : Remark Line 3
R4   .            COORDENADAS DE SUPERFICIE (DATUM SAD69):  N: 7.111.926,174 m;  E: 381.711,234 m. LAT: -26:06:26.776; LONG: -46:11:00.404. /  BASE (DATUM SAD69):  N: 7.112.025,780 m;  E: 381.573,410 m. : Remark Line 4
R5   .            PRIMEIRAS LEITURAS:  HAGRT = 418m; RES = 418m; PRESS= 418m. : Remark Line 5
R6   .            ULTIMAS LEITURAS:  HAGRT = 898.11m; RES = 895.15m; PRESS= 887.37m. : Remark Line 6
R7   .            LAMA:  base agua; peso lama = 12 ppg; Salinidade =  N/A mg/l Total Cloretos; Oil = 0%; Agua= 100%; Baritina = N/A. : Remark Line 7
R8   .            INCLINACAO MAXIMA:  1.14 deg @ 469.82 m. : Remark Line 8
R9   .            DECLINACAO MAGNETICA:  -20.38 deg. : Remark Line 9
ENGI .            SHIDFAR/ANDRADE : Engineer's Names

~Curve
DEPT .M                                          : DEPTH
TVD  .M                                          : True Vertical Depth
ROP  .M/HR                                       : Rate of Penetration
RPD2_X.HR                                        : Exposure Time of 2 MHz 46" PH Calculated Downhole
GR   .GAPI                                       : Gamma Ray Total
RPD2 .OHMM                                       : 2 MHz 46" PH Calculated Downhole
RPM2 .OHMM                                       : 2 MHz 30" PH Calculated Downhole
RPS2 .OHMM                                       : 2 MHz 20" PH Calculated Downhole
ECD  .LB/G                                       : Equivalent Circulating Density
AP   .PSI                                        : Recorded Annulus Pressure
ATMP .DEGF                                       : Recorded Annulus Temperature
TVLATAVG.G                                       : TVM Lateral Average Accelerometer
TVAXAVG.G                                        : TVM Axial Average Accelerometer
TVTOTAVG.G                                       : TVM Average Total Accelerometer

~ASCII
# ...
      563.4228     510.4498    46.12         0.4257    102.0008       0.7770     0.5352     0.3313     9.7109     813.9501    77.0000     0.0059    -0.0018     0.0077
      563.5752     510.6022    45.11         0.4296    103.0510       0.7788     0.5184     0.3052     9.7128     814.3497    77.0000     0.0056     0.0000     0.0056
      563.7276     510.7546    44.91         0.4342    101.3133       0.7828     0.5072     0.2862     9.7135     814.6622    77.0000     0.0057     0.0000     0.0057
      563.8800     510.9070    44.45         0.4394     98.0744       0.7871     0.5059     0.2796     9.7144     815.0042    77.0000     0.0070     0.0000     0.0070
      564.0324     511.0594    46.35         0.4451    100.3866       0.7949     0.5067     0.2748     9.7153     815.3434    77.0000     0.0052     0.0000     0.0052
      564.1848     511.2117    47.43         0.4524    102.5975       0.8059     0.5246     0.2913     9.7154     815.6166    77.0000     0.0091     0.0000     0.0091
      564.3372     511.3641    49.90         0.4603    104.7897       0.8171     0.5404     0.3054     9.7164     815.9809    77.0000     0.0097     0.0000     0.0097
      564.4896     511.5165    52.42         0.5114    108.3723       0.8178     0.5505     0.3186     9.7166     816.1979    77.0000     0.0112    -0.0021     0.0132
      564.6420     511.6689    53.65         0.5822    109.6924       0.8106     0.5541     0.3275     9.7167     816.3891    77.0000     0.0128    -0.0026     0.0155
      564.7944     511.8213    54.44         0.7169    109.7845       0.7910     0.5557     0.3399     9.7173     816.7633    77.0000     0.0138    -0.0034     0.0173
      564.9468     511.9737    54.22         0.7975    111.8958       0.7768     0.5534     0.3456     9.7173     817.0645    77.0000     0.0124    -0.0038     0.0162
      565.0992     512.1261    53.83         0.9091    113.4263       0.7480     0.5449     0.3518     9.7179     817.4060    77.0000     0.0116    -0.0028     0.0145
      565.2516     512.2785    53.51         0.9403    114.0693       0.7346     0.5398     0.3529     9.7197     817.8110    77.0000     0.0120    -0.0020     0.0140
      565.4040     512.4309    52.57         0.9412    116.6420       0.7251     0.5335     0.3519     9.7213     818.2169    77.0000     0.0102     0.0000     0.0102
      565.5564     512.5833    50.77         0.9426    117.1600       0.7220     0.5328     0.3537     9.7221     818.4110    77.0000     0.0078     0.0000     0.0078
      565.7088     512.7357    49.38         0.9445    118.7366       0.7152     0.5318     0.3567     9.7242     818.7784    77.0000     0.0059     0.0000     0.0059
      565.8612     512.8881    48.46         0.9463    121.8711       0.7110     0.5315     0.3599     9.7245     819.0788    77.0000     0.0033     0.0000     0.0033
      566.0136     513.0404    48.62         0.9478    123.8540       0.7069     0.5312     0.3623     9.7252     819.4088    77.0000     0.0030     0.0000     0.0030
      566.1660     513.1928    48.69         0.9481    115.3302       0.6985     0.5283     0.3641     9.7258     819.7346    77.0000     0.0032    -0.0031     0.0063
      566.3184     513.3452    48.90         0.9477    110.3874       0.6938     0.5271     0.3640     9.7267     820.1691    77.0000     0.0039    -0.0074     0.0112
      566.4708     513.4976    49.14         0.9471    106.4188       0.6909     0.5256     0.3636     9.7282     820.5374    77.0000     0.0040    -0.0103     0.0143
      566.6232     513.6500    49.23         0.9457     98.6660       0.6846     0.5248     0.3633     9.7290     820.7832    77.0000     0.0048    -0.0144     0.0192
      566.7756     513.8024    48.98         0.9464     90.6616       0.6843     0.5256     0.3630     9.7302     821.1342    77.0000     0.0040    -0.0227     0.0267
      566.9280     513.9548    48.38         0.9479     86.3779       0.6853     0.5271     0.3636     9.7322     821.6129    77.0000     0.0048    -0.0284     0.0331
      567.0804     514.1072    47.99         0.9491     78.3510       0.6872     0.5286     0.3638     9.7348     822.0813    77.0000     0.0059    -0.0375     0.0431
      567.2328     514.2596    47.20         0.9502     75.5883       0.6894     0.5285     0.3637     9.7377     822.5299    77.0000     0.0059    -0.0417     0.0471
      567.3852     514.4120    46.55         0.9501     75.1032       0.6889     0.5277     0.3636     9.7397     822.9022    77.0000     0.0070    -0.0397     0.0459
      567.5376     514.5644    45.86         0.9494     75.9329       0.6897     0.5259     0.3635     9.7422     823.2725    77.0000     0.0067    -0.0351     0.0405
      567.6900     514.7168    45.42         0.9465     81.1613       0.6892     0.5251     0.3634     9.7439     823.6142    77.0000     0.0055    -0.0225     0.0269
      567.8424     514.8691    45.38         0.9437     85.0614       0.6854     0.5228     0.3631     9.7440     823.8844    77.0000     0.0045    -0.0139     0.0175
      567.9948     515.0215    45.79         0.9427     90.6068       0.6864     0.5237     0.3644     9.7439     824.3412    77.0000     0.0036    -0.0062     0.0090
      568.1472     515.1739    46.39         0.9420     98.9446       0.6864     0.5240     0.3649     9.7430     824.6447    77.0000     0.0017     0.0000     0.0017
      568.2996     515.3263    46.84         0.9425    102.7984       0.6873     0.5258     0.3667     9.7426     824.8112    77.0000     0.0039     0.0000     0.0039
      568.4520     515.4787    47.66         0.9428    103.1378       0.6872     0.5261     0.3680     9.7428     825.0271    77.0000     0.0064     0.0000     0.0064
      568.6044     515.6311    47.86         0.9432    106.7697       0.6883     0.5275     0.3693     9.7426     825.1997    77.0000     0.0078     0.0000     0.0078
      568.7568     515.7835    47.82         0.9442    109.1074       0.6893     0.5288     0.3709     9.7405     825.2847    77.0857     0.0076     0.0000     0.0076
      568.9092     515.9359    47.79         0.9444    109.2156       0.6898     0.5294     0.3721     9.7398     825.4670    77.1714     0.0077     0.0000     0.0077
      569.0616     516.0883    47.65         0.9450    111.9510       0.6880     0.5294     0.3724     9.7417     825.9289    77.2571     0.0047     0.0000     0.0047
      569.2140     516.2407    47.55         0.9457    111.2919       0.6812     0.5257     0.3702     9.7481     826.7304    77.3429     0.0021     0.0000     0.0021
      569.3664     516.3931    47.21         0.9456    111.9395       0.6779     0.5239     0.3686     9.7627     828.1498    77.4286     0.0033     0.0000     0.0033
      569.5188     516.5455    46.70         0.9462    114.0742       0.6740     0.5210     0.3662     9.7813     829.9276    77.5143     0.0023     0.0000     0.0023
      569.6712     516.6978    46.43         0.9460    113.3362       0.6732     0.5202     0.3655     9.8025     831.9405    77.6000     0.0033     0.0000     0.0033
      569.8236     516.8502    46.23         0.9462    115.8518       0.6733     0.5198     0.3653     9.8258     834.1421    77.6857     0.0037     0.0000     0.0037
      569.9760     517.0026    46.23         0.9454    119.8754       0.6752     0.5205     0.3651     9.8408     835.6131    77.7714     0.0044     0.0000     0.0044
      570.1284     517.1550    46.81         0.9447    116.2393       0.6787     0.5240     0.3672     9.8514     836.7663    77.8571     0.0042     0.0000     0.0042
      570.2808     517.3074    47.59         0.9448    117.0954       0.6834     0.5268     0.3690     9.8587     837.6469    77.9429     0.0045     0.0000     0.0045
      570.4332     517.4598    48.24         0.9440    115.0973       0.6885     0.5324     0.3713     9.8596     837.9803    78.0286     0.0036     0.0000     0.0036
      570.5856     517.6122    48.88         0.9449    112.3544       0.6890     0.5325     0.3723     9.8609     838.4004    78.1143     0.0028     0.0000     0.0028
