~Version
VERS .                                       2.0 : LOG ASCII STANDARD - VERSION 2.0
WRAP .                                        NO : WRAP MODE

~Well
STRT .M                                   343.96 : First Index Value
STOP .M                                   915.00 : Last Index Value
STEP .M                                   0.1524 : STEP
NULL .                                   -999.25 : NULL VALUE
CN   .                                    KAROON : Company
WN   .                             1-KPGL-1D-SPS : Well
FN   .                                  S-M-1101 : Field
BASI .                                    SANTOS : Location
LCC  .            Weatherford International Ltd. : Service Company
CTRY .                                    Brazil : Country
LAT  .                             -26:06:26.776 : Latitude
LONG .                             -46:11:00.404 : Longitude
XLOC .M                              7111926.174 : Global X/Y
YLOC .M                               381711.234 : Global X/Y
GDAT .                                     SAD69 : Geodetic Datum
HDAT .                                     SAD69 : Horizontal Datum 
STAT .                                 SAO PAULO : State
CNTY .                                  Offshore : County
APIN .                               86316026760 : API Number
BAP  .M                                  -999.25 : Elevation of Base Antepoco 
BS   .IN                                   26.00 : Bit Diameter
BS1  .IN                                   36.00 : Bit Diameter
BS2  .IN                                   26.00 : Bit Diameter
BS3  .IN                                 -999.25 : Bit Diameter
BS4  .IN                                 -999.25 : Bit Diameter
CBD  .M                                   418.00 : Casing Depth - Driller
CBD1 .M                                   418.00 : Casing Depth - Driller
CBD2 .M                                  -999.25 : Casing Depth - Driller
CBD3 .M                                  -999.25 : Casing Depth - Driller
CBL  .M                                   418.00 : Casing Depth - Logger
CBL1 .M                                   418.00 : Casing Depth - Logger
CBL2 .M                                  -999.25 : Casing Depth - Logger
CBL3 .M                                  -999.25 : Casing Depth - Logger
CS1  .IN                                   30.00 : Casing Diameter
CS2  .IN                                   30.00 : Casing Diameter
CS3  .IN                                 -999.25 : Casing Diameter
CSW  .LB/F                                553.21 : Casing Weight
CSW1 .LB/F                                553.21 : Casing Weight
CSW2 .LB/F                               -999.25 : Casing Weight
CSW3 .LB/F                               -999.25 : Casing Weight
EDF  .M                                    28.00 : Rotary Table Elevation
DMF  .                                        MR : Reference of Depth - Driller
TDD  .M                                   915.00 : Total Depth - Driller
TDD1 .M                                   418.00 : Total Depth - Driller
TDD2 .M                                   915.00 : Total Depth - Driller
TDD3 .M                                  -999.25 : Total Depth - Driller
HIDE .                             1-KPGL-1D-SPS : Header Identifier
MAGD .DEG                                 -20.38 : Magnetic Declination
WITN .                              J.MC CAMBELL : Witness

~Parameter
PDAT .                                        NM : Permanent Datum
APD  .                                        28 : Above Permanent Datum
DREF .                                        RT : Depth Reference
EDR  .M                                       28 : Elevation of Depth Reference
LMF  .                                        RT : Log Measured From
DMF  .                                        RT : Drilling Measured From
EGL  .M                                  -316.00 : Elevation - Ground Level
EKB  .M                                  -999.25 : Elevation - Kelly Bushing
EDF  .M                                       28 : Elevation - Drill Floor
RUN  .                                        01 : Run Name
LCC  .                                    KAROON : Logging Company Code 
LNAM .                                GR/MFR/BAP : Log Names Identificator 
LDAT .                                28/12/2012 : Logging Date
TCS  .HR                                   02:17 : Time Ciculation Stopped
TLAB .HR                                   20:40 : Time Logger At Bottom    
TDD  .M                                   915.00 : Depth - Driller
TDL  .M                                   915.00 : Depth - Logger
BLI  .M                                   898.13 : Bottom Log Interval
TLI  .M                                   418.00 : Top Log Interval
CBD  .M                                   418.00 : Casing Depth - Driller
CBL  .M                                   418.00 : Casing Depth - Logger
BS   .IN                                   26.00 : Bit Size
CS   .IN                                   30.00 : Casing Size Line
CSW  .LB/F                                553.21 : Casing Weight  
DFT  .                               Water Based : Type of Drilling Fluid
DFD  .LB/G                               -999.25 : Drilling Fluid Density
DFV  .S                                  -999.25 : Drilling Fluid Viscosity
DFPH .                                   -999.25 : Drilling Fluid pH
DFL  .C3                                 -999.25 : Drilling Fluid Loss
DFS  .PPM                                -999.25 : Drilling Fluid Salinity
BARI .                                       OFF : Barite On/Off Switch  
RMS  .OHMM                               -999.25 : Mud Resistivity
MST  .DEGC                               -999.25 : Rm Temperature
MSS  .                                  PENEIRAS : Mud Sample Source 
RMFS .OHMM                               -999.25 : Mud Filtrate Resistivity
MFST .DEGC                               -999.25 : Rmf Temperature
MFSS .                                    PRENSA : Mud Filtrate Source 
RMCS .OHMM                               -999.25 : Mud Cake Resistivity
MCST .DEGC                               -999.25 : Rmc Temperature
MCSS .                                    PRENSA : Mud Cake Source 
RMBH .OHMM                               -999.25 : Rm at BHT
STEM .DEGC                               -999.25 : Surface Temperature 
BHT  .DEGC                                  28.9 : Bottom Hole Temperature
MRT  .DEGC                                  28.9 : Max Recorded Temperature
MATR .                                   -999.25 : Neutron Porosity Matrix
MDEN .G/C3                               -999.25 : Matrix Density
FD   .G/C3                               -999.25 : Formation Fluid Density
LTYP .                                       RAW : Log Type
LSRV .                                       LWD : Logging Service  
TPOS .                                         C : Tool Position (centered or variable)
TOOL .                               GAM/MFR/BAP : Tool Strig
R1   .            COUNTY: Offshore : Remark Line 1
R2   .            INICIO DA CIRCULACAO: 28/12/2012 @ 07:36 h;  FIM DA CIRCULACAO: 30/12/2012 @ 02:17 h;  TEMPO TOTAL = 31.8 h. : Remark Line 2
R3   .            TEMPERATURA DE SUPERFICIE = 23.9 degC;  FUNDO = 28.9 degC @ 915 m. : Remark Line 3
R4   .            COORDENADAS DE SUPERFICIE (DATUM SAD69):  N: 7.111.926,174 m;  E: 381.711,234 m. LAT: -26:06:26.776; LONG: -46:11:00.404. /  BASE (DATUM SAD69):  N: 7.112.025,780 m;  E: 381.573,410 m. : Remark Line 4
R5   .            PRIMEIRAS LEITURAS:  HAGRT = 418m; RES = 418m; PRESS= 418m. : Remark Line 5
R6   .            ULTIMAS LEITURAS:  HAGRT = 898.11m; RES = 895.15m; PRESS= 887.37m. : Remark Line 6
R7   .            LAMA:  base agua; peso lama = 12 ppg; Salinidade =  N/A mg/l Total Cloretos; Oil = 0%; Agua= 100%; Baritina = N/A. : Remark Line 7
R8   .            INCLINACAO MAXIMA:  1.14 deg @ 469.82 m. : Remark Line 8
R9   .            DECLINACAO MAGNETICA:  -20.38 deg. : Remark Line 9
ENGI .            SHIDFAR/ANDRADE : Engineer's Names

~Curve
DEPT .M                                          : DEPTH
TVD  .M                                          : True Vertical Depth
ROP  .M/HR                                       : Rate of Penetration
RPD2_X.HR                                        : Exposure Time of 2 MHz 46" PH Calculated Downhole
GR   .GAPI                                       : Gamma Ray Total
RPD2 .OHMM                                       : 2 MHz 46" PH Calculated Downhole
RPM2 .OHMM                                       : 2 MHz 30" PH Calculated Downhole
RPS2 .OHMM                                       : 2 MHz 20" PH Calculated Downhole
ECD  .LB/G                                       : Equivalent Circulating Density
AP   .PSI                                        : Recorded Annulus Pressure
ATMP .DEGF                                       : Recorded Annulus Temperature
TVLATAVG.G                                       : TVM Lateral Average Accelerometer
TVAXAVG.G                                        : TVM Axial Average Accelerometer
TVTOTAVG.G                                       : TVM Average Total Accelerometer

~ASCII
# ...
      673.1508     620.1749    48.86         0.4168    120.0866       0.6729     0.5289     0.3799     9.6111     985.6977    78.8000     0.0092     0.0000     0.0092
      673.3032     620.3273    48.72         0.4166    118.1996       0.6726     0.5281     0.3796     9.6113     985.9052    78.8000     0.0197     0.0000     0.0197
      673.4556     620.4797    48.74         0.4169    117.4345       0.6645     0.5248     0.3784     9.6113     986.0860    78.8000     0.0201     0.0000     0.0201
      673.6080     620.6321    48.78         0.4172    114.7915       0.6614     0.5239     0.3781     9.6115     986.4909    78.8000     0.0224     0.0000     0.0224
      673.7604     620.7845    48.99         0.4171    112.3129       0.6553     0.5220     0.3775     9.6123     986.8194    78.8000     0.0215     0.0016     0.0231
      673.9128     620.9369    49.14         0.4175    111.3932       0.6446     0.5189     0.3764     9.6131     987.2057    78.8000     0.0161     0.0023     0.0184
      674.0652     621.0893    49.35         0.4157    107.6062       0.6432     0.5186     0.3753     9.6136     987.5074    78.8000     0.0141     0.0033     0.0174
      674.2176     621.2417    49.49         0.4145    106.1645       0.6423     0.5183     0.3743     9.6141     987.7646    78.8000     0.0088     0.0072     0.0160
      674.3700     621.3941    49.59         0.4134    110.5899       0.6437     0.5188     0.3736     9.6146     988.0289    78.8000     0.0116     0.0084     0.0200
      674.5224     621.5465    49.33         0.4128    110.5534       0.6490     0.5213     0.3732     9.6153     988.3548    78.8000     0.0126     0.0125     0.0251
      674.6748     621.6989    48.96         0.4128    120.8519       0.6555     0.5246     0.3758     9.6162     988.6812    78.8000     0.0144     0.0134     0.0278
      674.8272     621.8513    48.22         0.4128    121.6739       0.6609     0.5278     0.3778     9.6159     988.8885    78.8000     0.0124     0.0110     0.0234
      674.9796     622.0037    47.41         0.4123    122.0248       0.6683     0.5330     0.3808     9.6167     989.2152    78.8000     0.0100     0.0105     0.0205
      675.1320     622.1561    46.92         0.4118    125.3433       0.6710     0.5362     0.3840     9.6166     989.4174    78.8000     0.0079     0.0069     0.0148
      675.2844     622.3085    46.55         0.4115    125.3777       0.6733     0.5390     0.3854     9.6167     989.6926    78.8000     0.0056     0.0045     0.0101
      675.4368     622.4609    46.27         0.4112    121.6996       0.6736     0.5398     0.3860     9.6176     990.0650    78.8000     0.0027     0.0022     0.0048
      675.5892     622.6133    46.60         0.4119    116.7147       0.6769     0.5411     0.3863     9.6178     990.3767    78.8000     0.0045     0.0000     0.0045
      675.7416     622.7656    46.76         0.4136    112.0673       0.6839     0.5438     0.3863     9.6186     990.7710    78.8000     0.0071     0.0000     0.0071
      675.8940     622.9180    47.15         0.4145    107.2897       0.6897     0.5457     0.3877     9.6201     991.1974    78.8000     0.0064     0.0000     0.0064
      676.0464     623.0704    47.46         0.4146    106.7451       0.6919     0.5469     0.3883     9.6209     991.5077    78.8000     0.0063     0.0000     0.0063
      676.1988     623.2228    47.50         0.4156    105.2648       0.6957     0.5483     0.3887     9.6219     991.8082    78.8000     0.0049     0.0019     0.0068
      676.3512     623.3752    47.62         0.4158    103.2396       0.6951     0.5491     0.3885     9.6229     992.0952    78.8000     0.0032     0.0024     0.0056
      676.5036     623.5276    47.69         0.4290    105.6142       0.6937     0.5399     0.3762     9.6244     992.4575    78.8000     0.0040     0.0030     0.0070
      676.6560     623.6800    47.78         0.4473    107.0129       0.6933     0.5307     0.3629     9.6254     992.7883    78.8000     0.0029     0.0040     0.0069
      676.8084     623.8324    47.89         0.4633    107.9071       0.6919     0.5182     0.3462     9.6257     993.1288    78.8000     0.0039     0.0031     0.0071
      676.9608     623.9848    47.95         0.4761    115.2172       0.6912     0.5108     0.3359     9.6273     993.5742    78.8000     0.0038     0.0022     0.0060
      677.1132     624.1372    47.99         0.4866    118.2021       0.6907     0.5068     0.3299     9.6283     993.9458    78.8000     0.0030     0.0036     0.0066
      677.2656     624.2896    47.80         0.5031    124.6129       0.6895     0.4997     0.3195     9.6282     994.1973    78.8000     0.0040     0.0024     0.0064
      677.4180     624.4420    47.69         0.5232    126.1397       0.6879     0.4938     0.3106     9.6306     994.6929    78.8000     0.0034     0.0032     0.0066
      677.5704     624.5944    47.25         0.5428    126.8767       0.6870     0.4922     0.3078     9.6313     995.0175    78.8000     0.0025     0.0042     0.0067
      677.7228     624.7468    46.50         0.5811    123.6895       0.6838     0.4857     0.2978     9.6327     995.4095    78.8000     0.0020     0.0033     0.0052
      677.8752     624.8992    45.80         0.6237    120.0875       0.6831     0.4900     0.3037     9.6344     995.7933    78.8000     0.0000     0.0047     0.0047
      678.0276     625.0516    45.34         0.7154    121.3656       0.6821     0.4987     0.3165     9.6349     996.0397    78.8000     0.0040     0.0087     0.0116
      678.1800     625.2040    44.93         0.7900    119.6067       0.6805     0.5044     0.3271     9.6360     996.3491    78.8000     0.0053     0.0089     0.0126
      678.3324     625.3564    44.94         0.9822    124.0157       0.6856     0.5239     0.3542     9.6371     996.7451    78.8000     0.0067     0.0113     0.0161
      678.4848     625.5088    45.28         1.0071    125.4997       0.6913     0.5283     0.3596     9.6386     997.3134    78.8000     0.0080     0.0114     0.0170
      678.6372     625.6612    45.57         1.0092    125.5620       0.6999     0.5321     0.3623     9.6391     997.5728    78.8000     0.0059     0.0081     0.0123
      678.7896     625.8136    46.28         1.0099    123.0456       0.7052     0.5352     0.3650     9.6404     997.9415    78.8000     0.0053     0.0066     0.0107
      678.9420     625.9660    47.17         1.0116    119.4445       0.7149     0.5404     0.3697     9.6420     998.3154    78.8000     0.0060     0.0044     0.0096
      679.0944     626.1184    47.73         1.0133    120.4164       0.7246     0.5485     0.3763     9.6431     998.6843    78.8000     0.0056     0.0022     0.0078
      679.2468     626.2708    48.51         1.0149    114.0588       0.7338     0.5570     0.3818     9.6443     999.0490    78.8000     0.0077     0.0026     0.0104
      679.3992     626.4232    48.51         1.0162    110.6229       0.7421     0.5638     0.3855     9.6464     999.5857    78.8000     0.0085     0.0016     0.0101
      679.5516     626.5756    48.40         1.0164    102.7202       0.7448     0.5671     0.3872     9.6465     999.8394    78.8000     0.0097     0.0008     0.0105
      679.7040     626.7280    48.25         1.0155     96.5854       0.7602     0.5768     0.3929     9.6473    1000.1324    78.8000     0.0104     0.0007     0.0110
      679.8564     626.8804    47.89         1.0147     91.1230       0.7676     0.5824     0.3973     9.6478    1000.4262    78.8000     0.0110     0.0004     0.0114
      680.0088     627.0328    47.63         1.0136     87.4318       0.7746     0.5864     0.3998     9.6477    1000.6409    78.8000     0.0137     0.0004     0.0141
      680.1612     627.1852    47.54         1.0126     84.7378       0.7773     0.5882     0.4023     9.6481    1000.9421    78.8000     0.0153     0.0004     0.0156
      680.3136     627.3376    47.28         1.0120     84.2559       0.7682     0.5856     0.4018     9.6484    1001.2400    78.8000     0.0182     0.0003     0.0185
