~Version
VERS .                                       2.0 : LOG ASCII STANDARD - VERSION 2.0
WRAP .                                        NO : WRAP MODE

~Well
STRT .M                                   343.96 : First Index Value
STOP .M                                   915.00 : Last Index Value
STEP .M                                   0.1524 : STEP
NULL .                                   -999.25 : NULL VALUE
CN   .                                    KAROON : Company
WN   .                             1-KPGL-1D-SPS : Well
FN   .                                  S-M-1101 : Field
BASI .                                    SANTOS : Location
LCC  .            Weatherford International Ltd. : Service Company
CTRY .                                    Brazil : Country
LAT  .                             -26:06:26.776 : Latitude
LONG .                             -46:11:00.404 : Longitude
XLOC .M                              7111926.174 : Global X/Y
YLOC .M                               381711.234 : Global X/Y
GDAT .                                     SAD69 : Geodetic Datum
HDAT .                                     SAD69 : Horizontal Datum 
STAT .                                 SAO PAULO : State
CNTY .                                  Offshore : County
APIN .                               86316026760 : API Number
BAP  .M                                  -999.25 : Elevation of Base Antepoco 
BS   .IN                                   26.00 : Bit Diameter
BS1  .IN                                   36.00 : Bit Diameter
BS2  .IN                                   26.00 : Bit Diameter
BS3  .IN                                 -999.25 : Bit Diameter
BS4  .IN                                 -999.25 : Bit Diameter
CBD  .M                                   418.00 : Casing Depth - Driller
CBD1 .M                                   418.00 : Casing Depth - Driller
CBD2 .M                                  -999.25 : Casing Depth - Driller
CBD3 .M                                  -999.25 : Casing Depth - Driller
CBL  .M                                   418.00 : Casing Depth - Logger
CBL1 .M                                   418.00 : Casing Depth - Logger
CBL2 .M                                  -999.25 : Casing Depth - Logger
CBL3 .M                                  -999.25 : Casing Depth - Logger
CS1  .IN                                   30.00 : Casing Diameter
CS2  .IN                                   30.00 : Casing Diameter
CS3  .IN                                 -999.25 : Casing Diameter
CSW  .LB/F                                553.21 : Casing Weight
CSW1 .LB/F                                553.21 : Casing Weight
CSW2 .LB/F                               -999.25 : Casing Weight
CSW3 .LB/F                               -999.25 : Casing Weight
EDF  .M                                    28.00 : Rotary Table Elevation
DMF  .                                        MR : Reference of Depth - Driller
TDD  .M                                   915.00 : Total Depth - Driller
TDD1 .M                                   418.00 : Total Depth - Driller
TDD2 .M                                   915.00 : Total Depth - Driller
TDD3 .M                                  -999.25 : Total Depth - Driller
HIDE .                             1-KPGL-1D-SPS : Header Identifier
MAGD .DEG                                 -20.38 : Magnetic Declination
WITN .                              J.MC CAMBELL : Witness

~Parameter
PDAT .                                        NM : Permanent Datum
APD  .                                        28 : Above Permanent Datum
DREF .                                        RT : Depth Reference
EDR  .M                                       28 : Elevation of Depth Reference
LMF  .                                        RT : Log Measured From
DMF  .                                        RT : Drilling Measured From
EGL  .M                                  -316.00 : Elevation - Ground Level
EKB  .M                                  -999.25 : Elevation - Kelly Bushing
EDF  .M                                       28 : Elevation - Drill Floor
RUN  .                                        01 : Run Name
LCC  .                                    KAROON : Logging Company Code 
LNAM .                                GR/MFR/BAP : Log Names Identificator 
LDAT .                                28/12/2012 : Logging Date
TCS  .HR                                   02:17 : Time Ciculation Stopped
TLAB .HR                                   20:40 : Time Logger At Bottom    
TDD  .M                                   915.00 : Depth - Driller
TDL  .M                                   915.00 : Depth - Logger
BLI  .M                                   898.13 : Bottom Log Interval
TLI  .M                                   418.00 : Top Log Interval
CBD  .M                                   418.00 : Casing Depth - Driller
CBL  .M                                   418.00 : Casing Depth - Logger
BS   .IN                                   26.00 : Bit Size
CS   .IN                                   30.00 : Casing Size Line
CSW  .LB/F                                553.21 : Casing Weight  
DFT  .                               Water Based : Type of Drilling Fluid
DFD  .LB/G                               -999.25 : Drilling Fluid Density
DFV  .S                                  -999.25 : Drilling Fluid Viscosity
DFPH .                                   -999.25 : Drilling Fluid pH
DFL  .C3                                 -999.25 : Drilling Fluid Loss
DFS  .PPM                                -999.25 : Drilling Fluid Salinity
BARI .                                       OFF : Barite On/Off Switch  
RMS  .OHMM                               -999.25 : Mud Resistivity
MST  .DEGC                               -999.25 : Rm Temperature
MSS  .                                  PENEIRAS : Mud Sample Source 
RMFS .OHMM                               -999.25 : Mud Filtrate Resistivity
MFST .DEGC                               -999.25 : Rmf Temperature
MFSS .                                    PRENSA : Mud Filtrate Source 
RMCS .OHMM                               -999.25 : Mud Cake Resistivity
MCST .DEGC                               -999.25 : Rmc Temperature
MCSS .                                    PRENSA : Mud Cake Source 
RMBH .OHMM                               -999.25 : Rm at BHT
STEM .DEGC                               -999.25 : Surface Temperature 
BHT  .DEGC                                  28.9 : Bottom Hole Temperature
MRT  .DEGC                                  28.9 : Max Recorded Temperature
MATR .                                   -999.25 : Neutron Porosity Matrix
MDEN .G/C3                               -999.25 : Matrix Density
FD   .G/C3                               -999.25 : Formation Fluid Density
LTYP .                                       RAW : Log Type
LSRV .                                       LWD : Logging Service  
TPOS .                                         C : Tool Position (centered or variable)
TOOL .                               GAM/MFR/BAP : Tool Strig
R1   .            COUNTY: Offshore : Remark Line 1
R2   .            INICIO DA CIRCULACAO: 28/12/2012 @ 07:36 h;  FIM DA CIRCULACAO: 30/12/2012 @ 02:17 h;  TEMPO TOTAL = 31.8 h. : Remark Line 2
R3   .            TEMPERATURA DE SUPERFICIE = 23.9 degC;  FUNDO = 28.9 degC @ 915 m. : Remark Line 3
R4   .            COORDENADAS DE SUPERFICIE (DATUM SAD69):  N: 7.111.926,174 m;  E: 381.711,234 m. LAT: -26:06:26.776; LONG: -46:11:00.404. /  BASE (DATUM SAD69):  N: 7.112.025,780 m;  E: 381.573,410 m. : Remark Line 4
R5   .            PRIMEIRAS LEITURAS:  HAGRT = 418m; RES = 418m; PRESS= 418m. : Remark Line 5
R6   .            ULTIMAS LEITURAS:  HAGRT = 898.11m; RES = 895.15m; PRESS= 887.37m. : Remark Line 6
R7   .            LAMA:  base agua; peso lama = 12 ppg; Salinidade =  N/A mg/l Total Cloretos; Oil = 0%; Agua= 100%; Baritina = N/A. : Remark Line 7
R8   .            INCLINACAO MAXIMA:  1.14 deg @ 469.82 m. : Remark Line 8
R9   .            DECLINACAO MAGNETICA:  -20.38 deg. : Remark Line 9
ENGI .            SHIDFAR/ANDRADE : Engineer's Names

~Curve
DEPT .M                                          : DEPTH
TVD  .M                                          : True Vertical Depth
ROP  .M/HR                                       : Rate of Penetration
RPD2_X.HR                                        : Exposure Time of 2 MHz 46" PH Calculated Downhole
GR   .GAPI                                       : Gamma Ray Total
RPD2 .OHMM                                       : 2 MHz 46" PH Calculated Downhole
RPM2 .OHMM                                       : 2 MHz 30" PH Calculated Downhole
RPS2 .OHMM                                       : 2 MHz 20" PH Calculated Downhole
ECD  .LB/G                                       : Equivalent Circulating Density
AP   .PSI                                        : Recorded Annulus Pressure
ATMP .DEGF                                       : Recorded Annulus Temperature
TVLATAVG.G                                       : TVM Lateral Average Accelerometer
TVAXAVG.G                                        : TVM Axial Average Accelerometer
TVTOTAVG.G                                       : TVM Average Total Accelerometer

~ASCII
# ...
      782.8788     729.9020    54.90         0.8098     87.9904       0.6751     0.4942     0.3365     9.7328    1179.9107    79.7018     0.0151     0.0000     0.0151
      783.0312     730.0544    54.90         0.8032     91.4018       0.6800     0.5002     0.3401     9.7278    1179.5550    79.7018     0.0146     0.0000     0.0146
      783.1836     730.2068    54.90         0.7945     94.9501       0.6882     0.5066     0.3436     9.7237    1179.4461    78.8000     0.0150     0.0000     0.0150
      783.3360     730.3592    52.54         0.7162     93.7955       0.6926     0.5140     0.3503     9.7294    1180.4615    78.8000     0.0170     0.0000     0.0170
      783.4884     730.5116    51.35         0.6805     94.1323       0.6918     0.5153     0.3524     9.7352    1181.5274    78.8000     0.0132     0.0000     0.0132
      783.6408     730.6640    49.33         0.6084     91.6803       0.6916     0.5160     0.3537     9.7484    1183.3675    78.8000     0.0168     0.0000     0.0168
      783.7932     730.8164    44.84         0.5620     89.9607       0.6890     0.5107     0.3464     9.7617    1185.1830    78.8000     0.0173     0.0000     0.0173
      783.9456     730.9688    36.21         0.5162     91.2025       0.6872     0.5075     0.3416     9.7827    1187.9217    78.8000     0.0148     0.0000     0.0148
      784.0980     731.1212    22.50         0.4624     94.1927       0.6925     0.5114     0.3440     9.8086    1191.3252    78.8000     0.0169     0.0000     0.0169
      784.2504     731.2736    14.82         0.4317    102.3447       0.6941     0.5150     0.3471     9.8295    1194.1526    79.2150     0.0168     0.0000     0.0168
      784.4028     731.4260    20.81         0.4112    106.0152       0.7009     0.5221     0.3552     9.8363    1195.2447    79.3356     0.0193     0.0000     0.0193
      784.5552     731.5784    24.64         0.3954    116.5031       0.7028     0.5268     0.3611     9.8335    1195.1368    79.5884     0.0263     0.0000     0.0263
      784.7076     731.7308    33.10         0.3969    112.0127       0.7054     0.5314     0.3678     9.8216    1193.9589    79.8993     0.0268     0.0000     0.0268
      784.8600     731.8832    43.12         0.4102    108.7973       0.7048     0.5301     0.3660     9.8088    1192.6035    79.8993     0.0331     0.0000     0.0331
      785.0124     732.0356    48.98         0.4290     99.1679       0.6988     0.5257     0.3628     9.7943    1191.0736    80.6000     0.0320     0.0000     0.0320
      785.1648     732.1880    55.83         0.4254     95.0568       0.6986     0.5272     0.3649     9.7823    1189.8109    80.6000     0.0232     0.0000     0.0232
      785.3172     732.3404    59.10         0.4179     97.0567       0.6954     0.5277     0.3661     9.7700    1188.5072    80.6000     0.0209     0.0000     0.0209
      785.4696     732.4928    62.95         0.3963     98.1777       0.6976     0.5323     0.3703     9.7605    1187.5545    80.6000     0.0137     0.0000     0.0137
      785.6220     732.6452    64.73         0.3581    101.9315       0.6993     0.5396     0.3790     9.7499    1186.5067    80.6000     0.0132     0.0000     0.0132
      785.7744     732.7976    63.56         0.3855    100.9106       0.6981     0.5332     0.3706     9.7378    1185.3939    80.6000     0.0118     0.0000     0.0118
      785.9268     732.9500    62.87         0.3936    102.5110       0.7003     0.5337     0.3698     9.7300    1184.7626    80.6000     0.0122     0.0000     0.0122
      786.0792     733.1024    62.42         0.4080    102.1434       0.6990     0.5298     0.3660     9.7193    1183.8749    80.6000     0.0184     0.0000     0.0184
      786.2316     733.2548    62.06         0.4196    103.2671       0.6975     0.5268     0.3630     9.7207    1184.2436    80.6000     0.0161     0.0000     0.0161
      786.3840     733.4072    62.19         0.4298    105.1428       0.6983     0.5256     0.3613     9.7207    1184.4062    80.6000     0.0207     0.0000     0.0207
      786.5364     733.5596    62.11         0.4247    104.4241       0.7012     0.5272     0.3616     9.7195    1184.5688    80.6000     0.0240     0.0000     0.0240
      786.6888     733.7120    62.39         0.4899    109.9717       0.6850     0.5065     0.3418     9.7162    1184.4505    80.6000     0.0185     0.0000     0.0185
      786.8412     733.8644    62.83         0.5679    113.5670       0.6721     0.4862     0.3198     9.7122    1184.2562    80.6000     0.0197     0.0000     0.0197
      786.9936     734.0168    62.91         0.6323    122.0305       0.6565     0.4658     0.3000     9.7073    1183.9415    80.6000     0.0150     0.0000     0.0150
      787.1460     734.1692    62.67         0.6738    120.2337       0.6456     0.4538     0.2891     9.7033    1183.6834    80.6000     0.0139     0.0000     0.0139
      787.2984     734.3216    62.54         0.6095    122.5042       0.6461     0.4668     0.3060     9.6999    1183.5053    80.6000     0.0132     0.0000     0.0132
      787.4508     734.4740    61.94         0.5662    121.1455       0.6384     0.4707     0.3166     9.6961    1183.2816    80.6000     0.0152     0.0000     0.0152
      787.6032     734.6264    61.71         0.5043    119.1081       0.6408     0.4822     0.3302     9.6938    1183.3121    80.6000     0.0181     0.0000     0.0181
      787.7556     734.7788    61.63         0.4086    111.6047       0.6401     0.4982     0.3521     9.6923    1183.3967    80.6000     0.0215     0.0000     0.0215
      787.9080     734.9312    61.37         0.4176    110.1102       0.6377     0.4948     0.3489     9.6915    1183.5635    80.6000     0.0247     0.0000     0.0247
      788.0604     735.0836    61.59         0.4121    108.6293       0.6298     0.4902     0.3484     9.6903    1183.7309    80.6000     0.0242     0.0000     0.0242
      788.2128     735.2360    62.16         0.4033    104.2197       0.6202     0.4847     0.3476     9.6894    1183.8343    80.6000     0.0224     0.0000     0.0224
      788.3652     735.3884    62.40         0.3931    108.9888       0.6171     0.4832     0.3496     9.6890    1184.0095    80.6000     0.0204     0.0000     0.0204
      788.5176     735.5408    62.72         0.3636    109.8529       0.6074     0.4811     0.3557     9.6882    1184.0558    80.6000     0.0157     0.0000     0.0157
      788.6700     735.6932    63.09         0.3893    110.8740       0.6023     0.4718     0.3490     9.6874    1184.2371    80.6000     0.0142     0.0000     0.0142
      788.8224     735.8456    63.32         0.3986    117.0046       0.5980     0.4680     0.3473     9.6870    1184.4356    80.6000     0.0124     0.0000     0.0124
      788.9748     735.9980    63.82         0.4105    110.4108       0.5920     0.4650     0.3448     9.6856    1184.6175    80.6000     0.0146     0.0000     0.0146
      789.1272     736.1504    64.36         0.4224    109.4892       0.5858     0.4603     0.3403     9.6850    1184.8445    80.6000     0.0151     0.0000     0.0151
      789.2796     736.3028    65.04         0.4122    106.3647       0.5799     0.4599     0.3405     9.6838    1184.9170    80.6000     0.0161     0.0000     0.0161
      789.4320     736.4552    65.60         0.4529     99.2934       0.5711     0.4519     0.3316     9.6833    1185.0961    80.6000     0.0206     0.0000     0.0206
      789.5844     736.6076    65.91         0.5788     89.4286       0.5610     0.4335     0.3079     9.6829    1185.2479    80.6000     0.0180     0.0000     0.0180
      789.7368     736.7600    66.07         0.8126     96.7911       0.5488     0.4072     0.2700     9.6827    1185.4751    80.6000     0.0257     0.0000     0.0257
      789.8892     736.9124    65.92         0.8413     92.9459       0.5459     0.4000     0.2624     9.6830    1185.7121    80.6000     0.0271     0.0000     0.0271
      790.0416     737.0648    65.60         0.8496     97.0871       0.5450     0.3978     0.2599     9.6828    1185.9978    80.6000     0.0269     0.0000     0.0269
