~Version
VERS .                                       2.0 : LOG ASCII STANDARD - VERSION 2.0
WRAP .                                        NO : WRAP MODE

~Well
STRT .M                                   343.96 : First Index Value
STOP .M                                   915.00 : Last Index Value
STEP .M                                   0.1524 : STEP
NULL .                                   -999.25 : NULL VALUE
CN   .                                    KAROON : Company
WN   .                             1-KPGL-1D-SPS : Well
FN   .                                  S-M-1101 : Field
BASI .                                    SANTOS : Location
LCC  .            Weatherford International Ltd. : Service Company
CTRY .                                    Brazil : Country
LAT  .                             -26:06:26.776 : Latitude
LONG .                             -46:11:00.404 : Longitude
XLOC .M                              7111926.174 : Global X/Y
YLOC .M                               381711.234 : Global X/Y
GDAT .                                     SAD69 : Geodetic Datum
HDAT .                                     SAD69 : Horizontal Datum 
STAT .                                 SAO PAULO : State
CNTY .                                  Offshore : County
APIN .                               86316026760 : API Number
BAP  .M                                  -999.25 : Elevation of Base Antepoco 
BS   .IN                                   26.00 : Bit Diameter
BS1  .IN                                   36.00 : Bit Diameter
BS2  .IN                                   26.00 : Bit Diameter
BS3  .IN                                 -999.25 : Bit Diameter
BS4  .IN                                 -999.25 : Bit Diameter
CBD  .M                                   418.00 : Casing Depth - Driller
CBD1 .M                                   418.00 : Casing Depth - Driller
CBD2 .M                                  -999.25 : Casing Depth - Driller
CBD3 .M                                  -999.25 : Casing Depth - Driller
CBL  .M                                   418.00 : Casing Depth - Logger
CBL1 .M                                   418.00 : Casing Depth - Logger
CBL2 .M                                  -999.25 : Casing Depth - Logger
CBL3 .M                                  -999.25 : Casing Depth - Logger
CS1  .IN                                   30.00 : Casing Diameter
CS2  .IN                                   30.00 : Casing Diameter
CS3  .IN                                 -999.25 : Casing Diameter
CSW  .LB/F                                553.21 : Casing Weight
CSW1 .LB/F                                553.21 : Casing Weight
CSW2 .LB/F                               -999.25 : Casing Weight
CSW3 .LB/F                               -999.25 : Casing Weight
EDF  .M                                    28.00 : Rotary Table Elevation
DMF  .                                        MR : Reference of Depth - Driller
TDD  .M                                   915.00 : Total Depth - Driller
TDD1 .M                                   418.00 : Total Depth - Driller
TDD2 .M                                   915.00 : Total Depth - Driller
TDD3 .M                                  -999.25 : Total Depth - Driller
HIDE .                             1-KPGL-1D-SPS : Header Identifier
MAGD .DEG                                 -20.38 : Magnetic Declination
WITN .                              J.MC CAMBELL : Witness

~Parameter
PDAT .                                        NM : Permanent Datum
APD  .                                        28 : Above Permanent Datum
DREF .                                        RT : Depth Reference
EDR  .M                                       28 : Elevation of Depth Reference
LMF  .                                        RT : Log Measured From
DMF  .                                        RT : Drilling Measured From
EGL  .M                                  -316.00 : Elevation - Ground Level
EKB  .M                                  -999.25 : Elevation - Kelly Bushing
EDF  .M                                       28 : Elevation - Drill Floor
RUN  .                                        01 : Run Name
LCC  .                                    KAROON : Logging Company Code 
LNAM .                                GR/MFR/BAP : Log Names Identificator 
LDAT .                                28/12/2012 : Logging Date
TCS  .HR                                   02:17 : Time Ciculation Stopped
TLAB .HR                                   20:40 : Time Logger At Bottom    
TDD  .M                                   915.00 : Depth - Driller
TDL  .M                                   915.00 : Depth - Logger
BLI  .M                                   898.13 : Bottom Log Interval
TLI  .M                                   418.00 : Top Log Interval
CBD  .M                                   418.00 : Casing Depth - Driller
CBL  .M                                   418.00 : Casing Depth - Logger
BS   .IN                                   26.00 : Bit Size
CS   .IN                                   30.00 : Casing Size Line
CSW  .LB/F                                553.21 : Casing Weight  
DFT  .                               Water Based : Type of Drilling Fluid
DFD  .LB/G                               -999.25 : Drilling Fluid Density
DFV  .S                                  -999.25 : Drilling Fluid Viscosity
DFPH .                                   -999.25 : Drilling Fluid pH
DFL  .C3                                 -999.25 : Drilling Fluid Loss
DFS  .PPM                                -999.25 : Drilling Fluid Salinity
BARI .                                       OFF : Barite On/Off Switch  
RMS  .OHMM                               -999.25 : Mud Resistivity
MST  .DEGC                               -999.25 : Rm Temperature
MSS  .                                  PENEIRAS : Mud Sample Source 
RMFS .OHMM                               -999.25 : Mud Filtrate Resistivity
MFST .DEGC                               -999.25 : Rmf Temperature
MFSS .                                    PRENSA : Mud Filtrate Source 
RMCS .OHMM                               -999.25 : Mud Cake Resistivity
MCST .DEGC                               -999.25 : Rmc Temperature
MCSS .                                    PRENSA : Mud Cake Source 
RMBH .OHMM                               -999.25 : Rm at BHT
STEM .DEGC                               -999.25 : Surface Temperature 
BHT  .DEGC                                  28.9 : Bottom Hole Temperature
MRT  .DEGC                                  28.9 : Max Recorded Temperature
MATR .                                   -999.25 : Neutron Porosity Matrix
MDEN .G/C3                               -999.25 : Matrix Density
FD   .G/C3                               -999.25 : Formation Fluid Density
LTYP .                                       RAW : Log Type
LSRV .                                       LWD : Logging Service  
TPOS .                                         C : Tool Position (centered or variable)
TOOL .                               GAM/MFR/BAP : Tool Strig
R1   .            COUNTY: Offshore : Remark Line 1
R2   .            INICIO DA CIRCULACAO: 28/12/2012 @ 07:36 h;  FIM DA CIRCULACAO: 30/12/2012 @ 02:17 h;  TEMPO TOTAL = 31.8 h. : Remark Line 2
R3   .            TEMPERATURA DE SUPERFICIE = 23.9 degC;  FUNDO = 28.9 degC @ 915 m. : Remark Line 3
R4   .            COORDENADAS DE SUPERFICIE (DATUM SAD69):  N: 7.111.926,174 m;  E: 381.711,234 m. LAT: -26:06:26.776; LONG: -46:11:00.404. /  BASE (DATUM SAD69):  N: 7.112.025,780 m;  E: 381.573,410 m. : Remark Line 4
R5   .            PRIMEIRAS LEITURAS:  HAGRT = 418m; RES = 418m; PRESS= 418m. : Remark Line 5
R6   .            ULTIMAS LEITURAS:  HAGRT = 898.11m; RES = 895.15m; PRESS= 887.37m. : Remark Line 6
R7   .            LAMA:  base agua; peso lama = 12 ppg; Salinidade =  N/A mg/l Total Cloretos; Oil = 0%; Agua= 100%; Baritina = N/A. : Remark Line 7
R8   .            INCLINACAO MAXIMA:  1.14 deg @ 469.82 m. : Remark Line 8
R9   .            DECLINACAO MAGNETICA:  -20.38 deg. : Remark Line 9
ENGI .            SHIDFAR/ANDRADE : Engineer's Names

~Curve
DEPT .M                                          : DEPTH
TVD  .M                                          : True Vertical Depth
ROP  .M/HR                                       : Rate of Penetration
RPD2_X.HR                                        : Exposure Time of 2 MHz 46" PH Calculated Downhole
GR   .GAPI                                       : Gamma Ray Total
RPD2 .OHMM                                       : 2 MHz 46" PH Calculated Downhole
RPM2 .OHMM                                       : 2 MHz 30" PH Calculated Downhole
RPS2 .OHMM                                       : 2 MHz 20" PH Calculated Downhole
ECD  .LB/G                                       : Equivalent Circulating Density
AP   .PSI                                        : Recorded Annulus Pressure
ATMP .DEGF                                       : Recorded Annulus Temperature
TVLATAVG.G                                       : TVM Lateral Average Accelerometer
TVAXAVG.G                                        : TVM Axial Average Accelerometer
TVTOTAVG.G                                       : TVM Average Total Accelerometer

~ASCII
# ...
      856.0308     803.0539    58.25         0.7844     94.2658       0.6571     0.4889     0.3422     9.7256    1300.6990    -999.25     0.0018     0.0000     0.0018
      856.1832     803.2063    57.96         0.7836     95.2328       0.6580     0.4879     0.3420     9.7260    1301.0200    -999.25     0.0048     0.0000     0.0048
      856.3356     803.3587    55.54         0.7828     94.4319       0.6626     0.4919     0.3450     9.7267    1301.3595    -999.25     0.0082     0.0000     0.0082
      856.4880     803.5111    54.96         0.7816     91.3653       0.6671     0.4955     0.3491     9.7266    1301.6190    -999.25     0.0120     0.0000     0.0120
      856.6404     803.6635    54.14         0.7792     89.4573       0.6797     0.5067     0.3556     9.7268    1301.8299    -999.25     0.0129     0.0000     0.0129
      856.7928     803.8159    50.25         0.7774     88.6227       0.6874     0.5122     0.3596     9.7284    1302.3294    -999.25     0.0123     0.0000     0.0123
      856.9452     803.9683    48.51         0.7746     87.8085       0.6977     0.5215     0.3680     9.7297    1302.7668    -999.25     0.0114     0.0000     0.0114
      857.0976     804.1207    46.17         0.7720     84.5155       0.6927     0.5185     0.3665     9.7315    1303.2312    -999.25     0.0053     0.0000     0.0053
      857.2500     804.2731    42.41         0.7700     83.5845       0.6863     0.5131     0.3635     9.7338    1303.7783    -999.25     0.0045     0.0000     0.0045
      857.4024     804.4255    41.71         0.7688     86.2528       0.6778     0.5087     0.3604     9.7358    1304.2309    -999.25     0.0027     0.0000     0.0027
      857.5548     804.5779    39.59         0.7673     91.2883       0.6664     0.5025     0.3570     9.7372    1304.7602    -999.25     0.0033     0.0000     0.0033
      857.7072     804.7303    38.66         0.7653     97.2566       0.6515     0.4961     0.3522     9.7365    1304.9782    -999.25     0.0042     0.0000     0.0042
      857.8596     804.8827    37.24         0.7636    103.4302       0.6439     0.4923     0.3487     9.7359    1305.1496    -999.25     0.0030     0.0000     0.0030
      858.0120     805.0351    36.24         0.7626    114.4482       0.6352     0.4885     0.3473     9.7352    1305.2416    -999.25     0.0024     0.0000     0.0024
      858.1644     805.1875    34.94         0.7617    110.6547       0.6315     0.4879     0.3490     9.7348    1305.4680    -999.25     0.0018     0.0000     0.0018
      858.3168     805.3399    34.94         0.7617    106.3651       0.6316     0.4875     0.3496     9.7350    1305.7206    -999.25     0.0000     0.0000     0.0000
      858.4692     805.4923    35.56         0.7616    102.3727       0.6346     0.4894     0.3516     9.7354    1306.0202    -999.25     0.0000     0.0000     0.0000
      858.6216     805.6447    36.52         0.7620     97.6606       0.6396     0.4916     0.3539     9.7365    1306.4583    -999.25     0.0000     0.0000     0.0000
      858.7740     805.7971    37.24         0.7622     97.5251       0.6547     0.5030     0.3595     9.7381    1306.9190    -999.25     0.0000     0.0000     0.0000
      858.9264     805.9495    39.60         0.7620     98.9049       0.6680     0.5119     0.3642     9.7391    1307.2817    -999.25     0.0000     0.0000     0.0000
      859.0788     806.1019    40.88         0.7621    101.5667       0.6791     0.5193     0.3670     9.7399    1307.6279    -999.25     0.0000     0.0000     0.0000
      859.2312     806.2543    41.96         0.7615     98.3700       0.6900     0.5274     0.3715     9.7413    1308.0682    -999.25     0.0000     0.0000     0.0000
      859.3836     806.4067    42.71         0.7607     97.8897       0.6871     0.5294     0.3760     9.7423    1308.4570    -999.25     0.0000     0.0000     0.0000
      859.5360     806.5591    43.23         0.7602    101.3017       0.6819     0.5288     0.3762     9.7430    1308.8716    -999.25     0.0000     0.0000     0.0000
      859.6884     806.7115    44.05         0.7596    101.3824       0.6784     0.5288     0.3777     9.7438    1309.2602    -999.25     0.0000     0.0000     0.0000
      859.8408     806.8639    45.12         0.7592    106.5020       0.6678     0.5265     0.3783     9.7440    1309.4761    -999.25     0.0000     0.0000     0.0000
      859.9932     807.0163    46.91         0.7597    104.8105       0.6589     0.5204     0.3764     9.7446    1309.7542    -999.25     0.0000     0.0000     0.0000
      860.1456     807.1687    47.78         0.7605    103.5901       0.6459     0.5122     0.3743     9.7454    1310.1104    -999.25     0.0000     0.0000     0.0000
      860.2980     807.3211    47.97         0.7610    102.4462       0.6317     0.5029     0.3701     9.7474    1310.6459    -999.25     0.0000     0.0000     0.0000
      860.4504     807.4735    48.47         0.7625     97.4343       0.6038     0.4839     0.3613     9.7488    1311.0812    -999.25     0.0000     0.0000     0.0000
      860.6028     807.6259    48.66         0.7629     94.1133       0.5972     0.4788     0.3572     9.7522    1311.8667    -999.25     0.0000     0.0000     0.0000
      860.7552     807.7783    48.98         0.7621     92.0025       0.5908     0.4722     0.3528     9.7540    1312.2820    -999.25     0.0000     0.0000     0.0000
      860.9076     807.9307    49.40         0.7618     95.6178       0.5862     0.4683     0.3505     9.7557    1312.7256    -999.25     0.0000     0.0000     0.0000
      861.0600     808.0831    49.86         0.7610    101.3166       0.5899     0.4696     0.3515     9.7579    1313.3017    -999.25     0.0000     0.0000     0.0000
      861.2124     808.2355    50.11         0.7598    104.0232       0.5964     0.4735     0.3541     9.7585    1313.7006    -999.25     0.0000     0.0000     0.0000
      861.3648     808.3879    50.32         0.7602    108.1112       0.6014     0.4768     0.3563     9.7584    1313.9986    -999.25     0.0000     0.0000     0.0000
      861.5172     808.5403    50.32         0.7605    109.0942       0.6097     0.4842     0.3591     9.7579    1314.1133    -999.25     0.0000     0.0000     0.0000
      861.6696     808.6927    51.01         0.7605    109.1754       0.6255     0.4962     0.3640     9.7575    1314.3326    -999.25     0.0000     0.0000     0.0000
      861.8220     808.8451    52.04         0.7603    106.5872       0.6451     0.5087     0.3687     9.7578    1314.5803    -999.25     0.0000     0.0000     0.0000
      861.9744     808.9975    53.17         0.7596    108.1116       0.6876     0.5369     0.3822     9.7582    1314.8287    -999.25     0.0000     0.0000     0.0000
      862.1268     809.1499    55.13         0.7592    104.2188       0.7027     0.5445     0.3851     9.7596    1315.2745    -999.25     0.0000     0.0000     0.0000
      862.2792     809.3023    56.62         0.7591    101.6747       0.7212     0.5554     0.3899     9.7619    1315.9056    -999.25     0.0000     0.0000     0.0000
      862.4316     809.4547    57.06         0.7587    104.4862       0.7340     0.5623     0.3934     9.7641    1316.4853    -999.25     0.0000     0.0000     0.0000
      862.5840     809.6071    57.79         0.7588    104.0661       0.7359     0.5609     0.3924     9.7658    1316.9445    -999.25     0.0000     0.0000     0.0000
      862.7364     809.7595    57.79         0.7590    102.7181       0.7418     0.5638     0.3940     9.7677    1317.4982    -999.25     0.0000     0.0000     0.0000
      862.8888     809.9119    57.64         0.7591    105.4813       0.7441     0.5636     0.3934     9.7690    1317.8430    -999.25     0.0000     0.0000     0.0000
      863.0412     810.0643    57.21         0.7594    102.9980       0.7466     0.5622     0.3905     9.7690    1318.0610    -999.25     0.0000     0.0000     0.0000
      863.1936     810.2167    56.97         0.7595    105.8848       0.7493     0.5639     0.3902     9.7689    1318.3161    -999.25     0.0000     0.0000     0.0000
