~Version
VERS .                                       2.0 : LOG ASCII STANDARD - VERSION 2.0
WRAP .                                        NO : WRAP MODE

~Well
STRT .M                                   343.96 : First Index Value
STOP .M                                   915.00 : Last Index Value
STEP .M                                   0.1524 : STEP
NULL .                                   -999.25 : NULL VALUE
CN   .                                    KAROON : Company
WN   .                             1-KPGL-1D-SPS : Well
FN   .                                  S-M-1101 : Field
BASI .                                    SANTOS : Location
LCC  .            Weatherford International Ltd. : Service Company
CTRY .                                    Brazil : Country
LAT  .                             -26:06:26.776 : Latitude
LONG .                             -46:11:00.404 : Longitude
XLOC .M                              7111926.174 : Global X/Y
YLOC .M                               381711.234 : Global X/Y
GDAT .                                     SAD69 : Geodetic Datum
HDAT .                                     SAD69 : Horizontal Datum 
STAT .                                 SAO PAULO : State
CNTY .                                  Offshore : County
APIN .                               86316026760 : API Number
BAP  .M                                  -999.25 : Elevation of Base Antepoco 
BS   .IN                                   26.00 : Bit Diameter
BS1  .IN                                   36.00 : Bit Diameter
BS2  .IN                                   26.00 : Bit Diameter
BS3  .IN                                 -999.25 : Bit Diameter
BS4  .IN                                 -999.25 : Bit Diameter
CBD  .M                                   418.00 : Casing Depth - Driller
CBD1 .M                                   418.00 : Casing Depth - Driller
CBD2 .M                                  -999.25 : Casing Depth - Driller
CBD3 .M                                  -999.25 : Casing Depth - Driller
CBL  .M                                   418.00 : Casing Depth - Logger
CBL1 .M                                   418.00 : Casing Depth - Logger
CBL2 .M                                  -999.25 : Casing Depth - Logger
CBL3 .M                                  -999.25 : Casing Depth - Logger
CS1  .IN                                   30.00 : Casing Diameter
CS2  .IN                                   30.00 : Casing Diameter
CS3  .IN                                 -999.25 : Casing Diameter
CSW  .LB/F                                553.21 : Casing Weight
CSW1 .LB/F                                553.21 : Casing Weight
CSW2 .LB/F                               -999.25 : Casing Weight
CSW3 .LB/F                               -999.25 : Casing Weight
EDF  .M                                    28.00 : Rotary Table Elevation
DMF  .                                        MR : Reference of Depth - Driller
TDD  .M                                   915.00 : Total Depth - Driller
TDD1 .M                                   418.00 : Total Depth - Driller
TDD2 .M                                   915.00 : Total Depth - Driller
TDD3 .M                                  -999.25 : Total Depth - Driller
HIDE .                             1-KPGL-1D-SPS : Header Identifier
MAGD .DEG                                 -20.38 : Magnetic Declination
WITN .                              J.MC CAMBELL : Witness

~Parameter
PDAT .                                        NM : Permanent Datum
APD  .                                        28 : Above Permanent Datum
DREF .                                        RT : Depth Reference
EDR  .M                                       28 : Elevation of Depth Reference
LMF  .                                        RT : Log Measured From
DMF  .                                        RT : Drilling Measured From
EGL  .M                                  -316.00 : Elevation - Ground Level
EKB  .M                                  -999.25 : Elevation - Kelly Bushing
EDF  .M                                       28 : Elevation - Drill Floor
RUN  .                                        01 : Run Name
LCC  .                                    KAROON : Logging Company Code 
LNAM .                                GR/MFR/BAP : Log Names Identificator 
LDAT .                                28/12/2012 : Logging Date
TCS  .HR                                   02:17 : Time Ciculation Stopped
TLAB .HR                                   20:40 : Time Logger At Bottom    
TDD  .M                                   915.00 : Depth - Driller
TDL  .M                                   915.00 : Depth - Logger
BLI  .M                                   898.13 : Bottom Log Interval
TLI  .M                                   418.00 : Top Log Interval
CBD  .M                                   418.00 : Casing Depth - Driller
CBL  .M                                   418.00 : Casing Depth - Logger
BS   .IN                                   26.00 : Bit Size
CS   .IN                                   30.00 : Casing Size Line
CSW  .LB/F                                553.21 : Casing Weight  
DFT  .                               Water Based : Type of Drilling Fluid
DFD  .LB/G                               -999.25 : Drilling Fluid Density
DFV  .S                                  -999.25 : Drilling Fluid Viscosity
DFPH .                                   -999.25 : Drilling Fluid pH
DFL  .C3                                 -999.25 : Drilling Fluid Loss
DFS  .PPM                                -999.25 : Drilling Fluid Salinity
BARI .                                       OFF : Barite On/Off Switch  
RMS  .OHMM                               -999.25 : Mud Resistivity
MST  .DEGC                               -999.25 : Rm Temperature
MSS  .                                  PENEIRAS : Mud Sample Source 
RMFS .OHMM                               -999.25 : Mud Filtrate Resistivity
MFST .DEGC                               -999.25 : Rmf Temperature
MFSS .                                    PRENSA : Mud Filtrate Source 
RMCS .OHMM                               -999.25 : Mud Cake Resistivity
MCST .DEGC                               -999.25 : Rmc Temperature
MCSS .                                    PRENSA : Mud Cake Source 
RMBH .OHMM                               -999.25 : Rm at BHT
STEM .DEGC                               -999.25 : Surface Temperature 
BHT  .DEGC                                  28.9 : Bottom Hole Temperature
MRT  .DEGC                                  28.9 : Max Recorded Temperature
MATR .                                   -999.25 : Neutron Porosity Matrix
MDEN .G/C3                               -999.25 : Matrix Density
FD   .G/C3                               -999.25 : Formation Fluid Density
LTYP .                                       RAW : Log Type
LSRV .                                       LWD : Logging Service  
TPOS .                                         C : Tool Position (centered or variable)
TOOL .                               GAM/MFR/BAP : Tool Strig
R1   .            COUNTY: Offshore : Remark Line 1
R2   .            INICIO DA CIRCULACAO: 28/12/2012 @ 07:36 h;  FIM DA CIRCULACAO: 30/12/2012 @ 02:17 h;  TEMPO TOTAL = 31.8 h. : Remark Line 2
R3   .            TEMPERATURA DE SUPERFICIE = 23.9 degC;  FUNDO = 28.9 degC @ 915 m. : Remark Line 3
R4   .            COORDENADAS DE SUPERFICIE (DATUM SAD69):  N: 7.111.926,174 m;  E: 381.711,234 m. LAT: -26:06:26.776; LONG: -46:11:00.404. /  BASE (DATUM SAD69):  N: 7.112.025,780 m;  E: 381.573,410 m. : Remark Line 4
R5   .            PRIMEIRAS LEITURAS:  HAGRT = 418m; RES = 418m; PRESS= 418m. : Remark Line 5
R6   .            ULTIMAS LEITURAS:  HAGRT = 898.11m; RES = 895.15m; PRESS= 887.37m. : Remark Line 6
R7   .            LAMA:  base agua; peso lama = 12 ppg; Salinidade =  N/A mg/l Total Cloretos; Oil = 0%; Agua= 100%; Baritina = N/A. : Remark Line 7
R8   .            INCLINACAO MAXIMA:  1.14 deg @ 469.82 m. : Remark Line 8
R9   .            DECLINACAO MAGNETICA:  -20.38 deg. : Remark Line 9
ENGI .            SHIDFAR/ANDRADE : Engineer's Names

~Curve
DEPT .M                                          : DEPTH
TVD  .M                                          : True Vertical Depth
ROP  .M/HR                                       : Rate of Penetration
RPD2_X.HR                                        : Exposure Time of 2 MHz 46" PH Calculated Downhole
GR   .GAPI                                       : Gamma Ray Total
RPD2 .OHMM                                       : 2 MHz 46" PH Calculated Downhole
RPM2 .OHMM                                       : 2 MHz 30" PH Calculated Downhole
RPS2 .OHMM                                       : 2 MHz 20" PH Calculated Downhole
ECD  .LB/G                                       : Equivalent Circulating Density
AP   .PSI                                        : Recorded Annulus Pressure
ATMP .DEGF                                       : Recorded Annulus Temperature
TVLATAVG.G                                       : TVM Lateral Average Accelerometer
TVAXAVG.G                                        : TVM Axial Average Accelerometer
TVTOTAVG.G                                       : TVM Average Total Accelerometer

~ASCII
# ...
      417.1188     364.3258   119.12         3.7061     88.2064       0.2418     0.1534     0.2905     9.9454     585.3838    76.1000     0.0000     0.0000     0.0000
      417.2712     364.4507   119.94         3.4275     88.4429       0.2648     0.1774     0.2773     9.9450     585.5927    76.2800     0.0000     0.0000     0.0000
      417.4236     364.5754   114.85         3.4359     88.9825      21.3802     0.1746     0.2597     9.9443     585.8260    76.4600     0.0000     0.0000     0.0000
      417.5760     364.6998   114.05         3.4485     94.8538      16.9834     0.1725     0.2484     9.9436     585.9598    76.6400     0.0000     0.0000     0.0000
      417.7284     364.8240   115.97         3.4521    100.9973      17.3815     0.1770     0.2491     9.9439     586.1512    76.8200     0.0027     0.0000     0.0027
      417.8808     364.9478   129.96         3.4663    105.2911      21.1758     0.1776     0.2451     9.9440     586.3557    77.0000     0.0060     0.0000     0.0060
      418.0332     365.0778   151.61         3.4657    109.4455      17.4902     0.1843     0.2467     9.9436     586.6765    77.0000     0.0093     0.0000     0.0093
      418.1856     365.2301   157.97         3.4591    111.5724      16.7260     0.1965     0.2536     9.9434     587.2543    77.0000     0.0175     0.0000     0.0175
      418.3380     365.3825   158.11         3.3215    110.6016      20.6719     0.2475     0.2833     9.9421     587.4164    76.3190     0.0244     0.0000     0.0244
      418.4904     365.5349   148.98         2.7901    111.6653       0.5567     0.4320     0.4228     9.9419     587.4826    76.0441     0.0292     0.0000     0.0292
      418.6428     365.6873   137.29         1.9611    107.1916       0.8005     0.6462     0.5784     9.9418     587.5248    75.8938     0.0330     0.0000     0.0330
      418.7952     365.8397   125.73         1.2782    106.1723       0.9297     0.7724     0.6781     9.9413     587.5536    75.5740     0.0331     0.0000     0.0331
      418.9476     365.9920   115.46         1.1947    104.8808       0.9124     0.7643     0.6679     9.9412     587.5950    75.5258     0.0335     0.0000     0.0335
      419.1000     366.1444   110.05         1.1183    102.4946       0.9106     0.7560     0.6507     9.9409     587.6583    75.5258     0.0347     0.0000     0.0347
      419.2524     366.2968   105.92         1.0818    101.3042       0.8683     0.7276     0.6069     9.9386     587.8499    75.2000     0.0322     0.0000     0.0322
      419.4048     366.4492   102.63         1.0926     99.0075       0.8301     0.6715     0.5248     9.9374     588.3121    75.2000     0.0311     0.0000     0.0311
      419.5572     366.6016   100.55         1.0073     97.8177       0.8290     0.6522     0.4836     9.9348     588.5679    75.2000     0.0306     0.0000     0.0306
      419.7096     366.7539    96.41         0.8260    100.5483       0.8117     0.6278     0.4390     9.9333     588.7950    75.2000     0.0254     0.0000     0.0254
      419.8620     366.9063    88.20         0.7680    102.9822       0.7973     0.5997     0.3970     9.9327     589.1200    75.2000     0.0223    -0.0010     0.0233
      420.0144     367.0587    63.07         0.7732     98.3657       0.7896     0.5814     0.3715     9.9324     589.4045    75.2000     0.0196     0.0021     0.0247
      420.1668     367.2111    19.44         0.7652     84.7503       0.7849     0.5714     0.3578     9.9317     589.5658    75.2000     0.0170     0.0064     0.0244
      420.3192     367.3635    14.33         0.7685     76.6433       0.7802     0.5607     0.3443     9.9315     589.7165    75.2000     0.0267     0.0301     0.0456
      420.4716     367.5158    14.33         0.7947     75.7180       0.7781     0.5561     0.3387     9.9301     589.7963    75.2000     0.0219     0.0219     0.0354
      420.6240     367.6682    14.22         0.8018     74.8318       0.7781     0.5565     0.3390     9.9287     589.8368    75.2000     0.0218     0.0221     0.0351
      420.7764     367.8206    14.18         0.9808     75.1319       0.7727     0.5427     0.3282     9.9266     589.9120    75.2000     0.0201     0.0187     0.0313
      420.9288     367.9730    14.07         1.1065     75.1647       0.7642     0.5367     0.3248     9.9224     589.9794    75.2000     0.0183     0.0157     0.0277
      421.0812     368.1254    13.99         1.8229     75.6482       0.7570     0.5225     0.3106     9.9177     590.1398    75.2000     0.0183     0.0153     0.0274
      421.2336     368.2777    13.92         2.0351     77.2252       0.7520     0.5152     0.3071     9.9160     590.3725    75.2000     0.0144     0.0056     0.0183
      421.3860     368.4301    13.88         2.0836     79.2461       0.7473     0.5127     0.3064     9.9144     590.5664    75.2000     0.0149     0.0061     0.0196
      421.5384     368.5825    13.88         2.1765     86.0012       0.7465     0.5112     0.3050     9.9134     590.7581    75.2000     0.0214     0.0050     0.0277
      421.6908     368.7349    13.88         2.1425     85.1649       0.7462     0.5111     0.3057     9.9134     590.9535    75.2000     0.0210     0.0002     0.0248
      421.8432     368.8872    13.88         1.9643     86.4313       0.7402     0.5107     0.3075     9.9129     591.1187    75.2000     0.0207    -0.0025     0.0231
      421.9956     369.0396    16.63         1.7147     83.7666       0.7213     0.5053     0.3083     9.9125     591.4177    75.2000     0.0231    -0.0034     0.0265
      422.1480     369.1920    18.56         1.3506     81.7767       0.7060     0.5025     0.3107     9.9129     591.6600    75.2000     0.0216    -0.0033     0.0249
      422.3004     369.3444    21.10         1.3497     79.8682       0.7055     0.5011     0.3093     9.9129     591.8553    75.2000     0.0210    -0.0036     0.0246
      422.4528     369.4968    23.87         1.3488     78.7051       0.7061     0.5000     0.3076     9.9147     592.2494    75.2000     0.0227    -0.0038     0.0265
      422.6052     369.6491    25.07         1.3497     75.3457       0.7094     0.4999     0.3064     9.9174     592.7568    75.2000     0.0218    -0.0024     0.0242
      422.7576     369.8015    25.83         1.3503     74.5897       0.7123     0.5003     0.3057     9.9198     593.2077    75.2000     0.0255    -0.0019     0.0274
      422.9100     369.9539    26.47         1.3508     74.3454       0.7162     0.5008     0.3046     9.9223     593.6281    75.2000     0.0277    -0.0014     0.0291
      423.0624     370.1063    26.53         1.3505     74.0056       0.7172     0.5000     0.3037     9.9225     593.8604    75.2000     0.0291    -0.0007     0.0299
      423.2148     370.2586    26.62         1.3471     75.1810       0.7132     0.4971     0.3021     9.9226     594.1070    75.2000     0.0323    -0.0007     0.0329
      423.3672     370.4110    26.73         1.4969     76.1118       0.7053     0.4915     0.2992     9.9226     594.4096    75.2000     0.0323    -0.0012     0.0335
      423.5196     370.5634    26.82         1.4937     74.9596       0.7030     0.4883     0.2972     9.9223     594.7031    75.2000     0.0309    -0.0010     0.0319
      423.6720     370.7158    26.85         1.4979     73.6024       0.7006     0.4845     0.2950     9.9217     594.9148    75.2947     0.0332    -0.0029     0.0361
      423.8244     370.8682    26.90         1.4970     71.8467       0.7004     0.4831     0.2940     9.9214     595.0764    75.3895     0.0185    -0.0061     0.0246
      423.9768     371.0205    26.90         1.5120     66.8414       0.6995     0.4798     0.2916     9.9204     595.2153    75.4842     0.0113    -0.0120     0.0233
      424.1292     371.1729    25.85         1.5300     64.4971       0.6952     0.4745     0.2882     9.9197     595.3890    75.5789     0.0000    -0.0115     0.0115
      424.2816     371.3253    24.75         1.4971     67.0571       0.6869     0.4669     0.2834     9.9178     595.5993    75.6737     0.0000    -0.0149     0.0149
