~Version
VERS .                                       2.0 : LOG ASCII STANDARD - VERSION 2.0
WRAP .                                        NO : WRAP MODE

~Well
STRT .M                                   343.96 : First Index Value
STOP .M                                   915.00 : Last Index Value
STEP .M                                   0.1524 : STEP
NULL .                                   -999.25 : NULL VALUE
CN   .                                    KAROON : Company
WN   .                             1-KPGL-1D-SPS : Well
FN   .                                  S-M-1101 : Field
BASI .                                    SANTOS : Location
LCC  .            Weatherford International Ltd. : Service Company
CTRY .                                    Brazil : Country
LAT  .                             -26:06:26.776 : Latitude
LONG .                             -46:11:00.404 : Longitude
XLOC .M                              7111926.174 : Global X/Y
YLOC .M                               381711.234 : Global X/Y
GDAT .                                     SAD69 : Geodetic Datum
HDAT .                                     SAD69 : Horizontal Datum 
STAT .                                 SAO PAULO : State
CNTY .                                  Offshore : County
APIN .                               86316026760 : API Number
BAP  .M                                  -999.25 : Elevation of Base Antepoco 
BS   .IN                                   26.00 : Bit Diameter
BS1  .IN                                   36.00 : Bit Diameter
BS2  .IN                                   26.00 : Bit Diameter
BS3  .IN                                 -999.25 : Bit Diameter
BS4  .IN                                 -999.25 : Bit Diameter
CBD  .M                                   418.00 : Casing Depth - Driller
CBD1 .M                                   418.00 : Casing Depth - Driller
CBD2 .M                                  -999.25 : Casing Depth - Driller
CBD3 .M                                  -999.25 : Casing Depth - Driller
CBL  .M                                   418.00 : Casing Depth - Logger
CBL1 .M                                   418.00 : Casing Depth - Logger
CBL2 .M                                  -999.25 : Casing Depth - Logger
CBL3 .M                                  -999.25 : Casing Depth - Logger
CS1  .IN                                   30.00 : Casing Diameter
CS2  .IN                                   30.00 : Casing Diameter
CS3  .IN                                 -999.25 : Casing Diameter
CSW  .LB/F                                553.21 : Casing Weight
CSW1 .LB/F                                553.21 : Casing Weight
CSW2 .LB/F                               -999.25 : Casing Weight
CSW3 .LB/F                               -999.25 : Casing Weight
EDF  .M                                    28.00 : Rotary Table Elevation
DMF  .                                        MR : Reference of Depth - Driller
TDD  .M                                   915.00 : Total Depth - Driller
TDD1 .M                                   418.00 : Total Depth - Driller
TDD2 .M                                   915.00 : Total Depth - Driller
TDD3 .M                                  -999.25 : Total Depth - Driller
HIDE .                             1-KPGL-1D-SPS : Header Identifier
MAGD .DEG                                 -20.38 : Magnetic Declination
WITN .                              J.MC CAMBELL : Witness

~Parameter
PDAT .                                        NM : Permanent Datum
APD  .                                        28 : Above Permanent Datum
DREF .                                        RT : Depth Reference
EDR  .M                                       28 : Elevation of Depth Reference
LMF  .                                        RT : Log Measured From
DMF  .                                        RT : Drilling Measured From
EGL  .M                                  -316.00 : Elevation - Ground Level
EKB  .M                                  -999.25 : Elevation - Kelly Bushing
EDF  .M                                       28 : Elevation - Drill Floor
RUN  .                                        01 : Run Name
LCC  .                                    KAROON : Logging Company Code 
LNAM .                                GR/MFR/BAP : Log Names Identificator 
LDAT .                                28/12/2012 : Logging Date
TCS  .HR                                   02:17 : Time Ciculation Stopped
TLAB .HR                                   20:40 : Time Logger At Bottom    
TDD  .M                                   915.00 : Depth - Driller
TDL  .M                                   915.00 : Depth - Logger
BLI  .M                                   898.13 : Bottom Log Interval
TLI  .M                                   418.00 : Top Log Interval
CBD  .M                                   418.00 : Casing Depth - Driller
CBL  .M                                   418.00 : Casing Depth - Logger
BS   .IN                                   26.00 : Bit Size
CS   .IN                                   30.00 : Casing Size Line
CSW  .LB/F                                553.21 : Casing Weight  
DFT  .                               Water Based : Type of Drilling Fluid
DFD  .LB/G                               -999.25 : Drilling Fluid Density
DFV  .S                                  -999.25 : Drilling Fluid Viscosity
DFPH .                                   -999.25 : Drilling Fluid pH
DFL  .C3                                 -999.25 : Drilling Fluid Loss
DFS  .PPM                                -999.25 : Drilling Fluid Salinity
BARI .                                       OFF : Barite On/Off Switch  
RMS  .OHMM                               -999.25 : Mud Resistivity
MST  .DEGC                               -999.25 : Rm Temperature
MSS  .                                  PENEIRAS : Mud Sample Source 
RMFS .OHMM                               -999.25 : Mud Filtrate Resistivity
MFST .DEGC                               -999.25 : Rmf Temperature
MFSS .                                    PRENSA : Mud Filtrate Source 
RMCS .OHMM                               -999.25 : Mud Cake Resistivity
MCST .DEGC                               -999.25 : Rmc Temperature
MCSS .                                    PRENSA : Mud Cake Source 
RMBH .OHMM                               -999.25 : Rm at BHT
STEM .DEGC                               -999.25 : Surface Temperature 
BHT  .DEGC                                  28.9 : Bottom Hole Temperature
MRT  .DEGC                                  28.9 : Max Recorded Temperature
MATR .                                   -999.25 : Neutron Porosity Matrix
MDEN .G/C3                               -999.25 : Matrix Density
FD   .G/C3                               -999.25 : Formation Fluid Density
LTYP .                                       RAW : Log Type
LSRV .                                       LWD : Logging Service  
TPOS .                                         C : Tool Position (centered or variable)
TOOL .                               GAM/MFR/BAP : Tool Strig
R1   .            COUNTY: Offshore : Remark Line 1
R2   .            INICIO DA CIRCULACAO: 28/12/2012 @ 07:36 h;  FIM DA CIRCULACAO: 30/12/2012 @ 02:17 h;  TEMPO TOTAL = 31.8 h. : Remark Line 2
R3   .            TEMPERATURA DE SUPERFICIE = 23.9 degC;  FUNDO = 28.9 degC @ 915 m. : Remark Line 3
R4   .            COORDENADAS DE SUPERFICIE (DATUM SAD69):  N: 7.111.926,174 m;  E: 381.711,234 m. LAT: -26:06:26.776; LONG: -46:11:00.404. /  BASE (DATUM SAD69):  N: 7.112.025,780 m;  E: 381.573,410 m. : Remark Line 4
R5   .            PRIMEIRAS LEITURAS:  HAGRT = 418m; RES = 418m; PRESS= 418m. : Remark Line 5
R6   .            ULTIMAS LEITURAS:  HAGRT = 898.11m; RES = 895.15m; PRESS= 887.37m. : Remark Line 6
R7   .            LAMA:  base agua; peso lama = 12 ppg; Salinidade =  N/A mg/l Total Cloretos; Oil = 0%; Agua= 100%; Baritina = N/A. : Remark Line 7
R8   .            INCLINACAO MAXIMA:  1.14 deg @ 469.82 m. : Remark Line 8
R9   .            DECLINACAO MAGNETICA:  -20.38 deg. : Remark Line 9
ENGI .            SHIDFAR/ANDRADE : Engineer's Names

~Curve
DEPT .M                                          : DEPTH
TVD  .M                                          : True Vertical Depth
ROP  .M/HR                                       : Rate of Penetration
RPD2_X.HR                                        : Exposure Time of 2 MHz 46" PH Calculated Downhole
GR   .GAPI                                       : Gamma Ray Total
RPD2 .OHMM                                       : 2 MHz 46" PH Calculated Downhole
RPM2 .OHMM                                       : 2 MHz 30" PH Calculated Downhole
RPS2 .OHMM                                       : 2 MHz 20" PH Calculated Downhole
ECD  .LB/G                                       : Equivalent Circulating Density
AP   .PSI                                        : Recorded Annulus Pressure
ATMP .DEGF                                       : Recorded Annulus Temperature
TVLATAVG.G                                       : TVM Lateral Average Accelerometer
TVAXAVG.G                                        : TVM Axial Average Accelerometer
TVTOTAVG.G                                       : TVM Average Total Accelerometer

~ASCII
# ...
      526.8468     473.8763    27.97         0.8917    115.1413       0.7260     0.5115     0.3103     9.8945     767.5458    77.0000     0.0077     0.0000     0.0077
      526.9992     474.0287    28.07         0.8569    110.2370       0.7386     0.5192     0.3149     9.9214     769.7799    77.0000     0.0133     0.0000     0.0133
      527.1516     474.1811    28.26         0.8078     99.3849       0.7484     0.5257     0.3193     9.9381     771.1960    77.0000     0.0194     0.0000     0.0194
      527.3040     474.3334    28.91         0.7042     94.3909       0.7610     0.5350     0.3267     9.9387     771.4961    77.0000     0.0233     0.0000     0.0233
      527.4564     474.4858    30.16         0.6324     84.6099       0.7661     0.5389     0.3296     9.9191     770.2958    76.5349     0.0244     0.0000     0.0244
      527.6088     474.6382    31.77         0.4153     82.7216       0.7821     0.5512     0.3394     9.8942     768.6914    76.4094     0.0235     0.0000     0.0235
      527.7612     474.7906    32.51         0.4155     81.4328       0.7732     0.5532     0.3462     9.8686     766.9900    76.3079     0.0207     0.0000     0.0207
      527.9136     474.9430    33.80         0.4158     82.0004       0.7663     0.5534     0.3494     9.8469     765.4974    76.0702     0.0185     0.0000     0.0185
      528.0660     475.0954    35.34         0.4160     79.6470       0.7613     0.5543     0.3528     9.8355     764.7425    76.0702     0.0199     0.0000     0.0199
      528.2184     475.2478    35.81         0.4161     79.7187       0.7543     0.5544     0.3570     9.8222     763.8454    76.0702     0.0190    -0.0022     0.0211
      528.3708     475.4002    38.05         0.4163     77.9511       0.7538     0.5560     0.3605     9.7913     761.7254    75.2000     0.0201    -0.0029     0.0230
      528.5232     475.5525    41.52         0.4168     72.3188       0.7582     0.5596     0.3645     9.7720     760.5467    75.2000     0.0215    -0.0039     0.0254
      528.6756     475.7049    44.05         0.4180     72.6680       0.7619     0.5658     0.3732     9.7373     758.3044    75.2000     0.0208    -0.0042     0.0250
      528.8280     475.8573    46.88         0.4186     71.0794       0.7685     0.5715     0.3788     9.7148     756.8997    75.2000     0.0222    -0.0030     0.0252
      528.9804     476.0097    49.50         0.4190     70.4180       0.7688     0.5733     0.3811     9.7069     756.5959    75.2000     0.0218    -0.0023     0.0242
      529.1328     476.1621    51.06         0.4191     71.0084       0.7699     0.5763     0.3845     9.7062     756.7749    75.2000     0.0249     0.0000     0.0249
      529.2852     476.3145    51.06         0.4180     70.7241       0.7694     0.5792     0.3873     9.7051     756.9352    75.2000     0.0215     0.0000     0.0215
      529.4376     476.4669    49.63         0.4169     70.6933       0.7667     0.5788     0.3877     9.7043     757.1204    75.2000     0.0208     0.0000     0.0208
      529.5900     476.6193    48.62         0.4144     76.1085       0.7691     0.5783     0.3876     9.7031     757.3309    75.2000     0.0169     0.0000     0.0169
      529.7424     476.7716    47.77         0.4140     78.5969       0.7694     0.5781     0.3875     9.7027     757.5800    75.2000     0.0129     0.0000     0.0129
      529.8948     476.9240    46.77         0.4139     80.7963       0.7701     0.5779     0.3880     9.7024     757.8255    75.2000     0.0182    -0.0019     0.0201
      530.0472     477.0764    46.50         0.4132     85.6662       0.7722     0.5780     0.3887     9.7026     758.0731    75.2000     0.0155    -0.0028     0.0183
      530.1996     477.2288    46.03         0.4136     87.6686       0.7733     0.5799     0.3897     9.7028     758.2611    75.2000     0.0192    -0.0060     0.0253
      530.3520     477.3812    45.58         0.4134     92.4112       0.7757     0.5813     0.3906     9.7031     758.5025    75.2000     0.0226    -0.0073     0.0298
      530.5044     477.5336    45.40         0.4134    100.9723       0.7789     0.5846     0.3921     9.7036     758.8376    75.2947     0.0191    -0.0074     0.0265
      530.6568     477.6860    45.26         0.4144    104.6470       0.7948     0.5943     0.3956     9.7038     759.1769    75.3895     0.0215    -0.0064     0.0278
      530.8092     477.8384    45.09         0.4151    106.1224       0.8080     0.6006     0.3981     9.7043     759.5177    75.4842     0.0193    -0.0030     0.0223
      530.9616     477.9907    44.97         0.4166    107.9601       0.8281     0.6113     0.4049     9.7050     759.8566    75.5789     0.0190    -0.0021     0.0211
      531.1140     478.1431    45.32         0.4171    106.4579       0.8526     0.6225     0.4105     9.7062     760.1638    75.6737     0.0205     0.0000     0.0205
      531.2664     478.2955    45.52         0.4178    101.9790       0.8721     0.6320     0.4158     9.7071     760.4098    75.7684     0.0176     0.0000     0.0176
      531.4188     478.4479    46.02         0.4180     98.2675       0.8866     0.6388     0.4201     9.7091     760.7982    75.8632     0.0186     0.0000     0.0186
      531.5712     478.6003    46.69         0.4175     96.8040       0.9019     0.6472     0.4229     9.7106     761.1844    75.9579     0.0148     0.0000     0.0148
      531.7236     478.7527    47.01         0.4175     99.6413       0.9121     0.6535     0.4264     9.7118     761.4844    76.0526     0.0145     0.0000     0.0145
      531.8760     478.9051    47.51         0.4173    103.7628       0.9089     0.6575     0.4296     9.7124     761.7514    76.1474     0.0140     0.0000     0.0140
      532.0284     479.0575    48.49         0.4165    107.8692       0.8954     0.6551     0.4274     9.7123     762.0873    76.2421     0.0127     0.0000     0.0127
      532.1808     479.2098    48.57         0.4163    114.5802       0.8814     0.6531     0.4283     9.7118     762.3337    76.3368     0.0133     0.0000     0.0133
      532.3332     479.3622    48.90         0.4160    114.0515       0.8710     0.6485     0.4271     9.7109     762.4902    76.4316     0.0125     0.0000     0.0125
      532.4856     479.5146    48.60         0.4152    112.9145       0.8500     0.6361     0.4223     9.7103     762.6580    76.5263     0.0171     0.0000     0.0171
      532.6380     479.6670    48.43         0.4139    114.9715       0.8397     0.6321     0.4198     9.7102     762.8413    76.6211     0.0258     0.0000     0.0258
      532.7904     479.8194    48.05         0.4126    110.6147       0.8199     0.6215     0.4140     9.7103     762.9780    76.7158     0.0307     0.0000     0.0307
      532.9428     479.9718    47.80         0.4120    109.8195       0.8097     0.6174     0.4116     9.7097     763.2569    76.8105     0.0329     0.0000     0.0329
      533.0952     480.1242    47.43         0.4112    111.4667       0.8016     0.6145     0.4090     9.7091     763.6847    76.9053     0.0350     0.0000     0.0350
      533.2476     480.2766    47.28         0.4113    111.8590       0.8000     0.6142     0.4093     9.7093     764.0795    77.0000     0.0308     0.0000     0.0308
      533.4000     480.4290    47.21         0.4114    112.1478       0.8032     0.6186     0.4109     9.7094     764.2556    77.0000     0.0307     0.0000     0.0307
      533.5524     480.5813    47.15         0.4120    117.4392       0.8137     0.6192     0.4125     9.7097     764.3932    77.0000     0.0293     0.0000     0.0293
      533.7048     480.7337    47.07         0.4117    117.3846       0.8325     0.6283     0.4170     9.7103     764.5796    77.0000     0.0264     0.0000     0.0264
      533.8572     480.8861    47.03         0.5810    114.8131       0.8613     0.6422     0.4229     9.7108     764.7682    77.0000     0.0269     0.0000     0.0269
      534.0096     481.0385    46.99         0.6842    112.6643       0.8796     0.6504     0.4249     9.7126     765.2963    77.0000     0.0242     0.0000     0.0242
