~Version
VERS .                                       2.0 : LOG ASCII STANDARD - VERSION 2.0
WRAP .                                        NO : WRAP MODE

~Well
STRT .M                                   343.96 : First Index Value
STOP .M                                   915.00 : Last Index Value
STEP .M                                   0.1524 : STEP
NULL .                                   -999.25 : NULL VALUE
CN   .                                    KAROON : Company
WN   .                             1-KPGL-1D-SPS : Well
FN   .                                  S-M-1101 : Field
BASI .                                    SANTOS : Location
LCC  .            Weatherford International Ltd. : Service Company
CTRY .                                    Brazil : Country
LAT  .                             -26:06:26.776 : Latitude
LONG .                             -46:11:00.404 : Longitude
XLOC .M                              7111926.174 : Global X/Y
YLOC .M                               381711.234 : Global X/Y
GDAT .                                     SAD69 : Geodetic Datum
HDAT .                                     SAD69 : Horizontal Datum 
STAT .                                 SAO PAULO : State
CNTY .                                  Offshore : County
APIN .                               86316026760 : API Number
BAP  .M                                  -999.25 : Elevation of Base Antepoco 
BS   .IN                                   26.00 : Bit Diameter
BS1  .IN                                   36.00 : Bit Diameter
BS2  .IN                                   26.00 : Bit Diameter
BS3  .IN                                 -999.25 : Bit Diameter
BS4  .IN                                 -999.25 : Bit Diameter
CBD  .M                                   418.00 : Casing Depth - Driller
CBD1 .M                                   418.00 : Casing Depth - Driller
CBD2 .M                                  -999.25 : Casing Depth - Driller
CBD3 .M                                  -999.25 : Casing Depth - Driller
CBL  .M                                   418.00 : Casing Depth - Logger
CBL1 .M                                   418.00 : Casing Depth - Logger
CBL2 .M                                  -999.25 : Casing Depth - Logger
CBL3 .M                                  -999.25 : Casing Depth - Logger
CS1  .IN                                   30.00 : Casing Diameter
CS2  .IN                                   30.00 : Casing Diameter
CS3  .IN                                 -999.25 : Casing Diameter
CSW  .LB/F                                553.21 : Casing Weight
CSW1 .LB/F                                553.21 : Casing Weight
CSW2 .LB/F                               -999.25 : Casing Weight
CSW3 .LB/F                               -999.25 : Casing Weight
EDF  .M                                    28.00 : Rotary Table Elevation
DMF  .                                        MR : Reference of Depth - Driller
TDD  .M                                   915.00 : Total Depth - Driller
TDD1 .M                                   418.00 : Total Depth - Driller
TDD2 .M                                   915.00 : Total Depth - Driller
TDD3 .M                                  -999.25 : Total Depth - Driller
HIDE .                             1-KPGL-1D-SPS : Header Identifier
MAGD .DEG                                 -20.38 : Magnetic Declination
WITN .                              J.MC CAMBELL : Witness

~Parameter
PDAT .                                        NM : Permanent Datum
APD  .                                        28 : Above Permanent Datum
DREF .                                        RT : Depth Reference
EDR  .M                                       28 : Elevation of Depth Reference
LMF  .                                        RT : Log Measured From
DMF  .                                        RT : Drilling Measured From
EGL  .M                                  -316.00 : Elevation - Ground Level
EKB  .M                                  -999.25 : Elevation - Kelly Bushing
EDF  .M                                       28 : Elevation - Drill Floor
RUN  .                                        01 : Run Name
LCC  .                                    KAROON : Logging Company Code 
LNAM .                                GR/MFR/BAP : Log Names Identificator 
LDAT .                                28/12/2012 : Logging Date
TCS  .HR                                   02:17 : Time Ciculation Stopped
TLAB .HR                                   20:40 : Time Logger At Bottom    
TDD  .M                                   915.00 : Depth - Driller
TDL  .M                                   915.00 : Depth - Logger
BLI  .M                                   898.13 : Bottom Log Interval
TLI  .M                                   418.00 : Top Log Interval
CBD  .M                                   418.00 : Casing Depth - Driller
CBL  .M                                   418.00 : Casing Depth - Logger
BS   .IN                                   26.00 : Bit Size
CS   .IN                                   30.00 : Casing Size Line
CSW  .LB/F                                553.21 : Casing Weight  
DFT  .                               Water Based : Type of Drilling Fluid
DFD  .LB/G                               -999.25 : Drilling Fluid Density
DFV  .S                                  -999.25 : Drilling Fluid Viscosity
DFPH .                                   -999.25 : Drilling Fluid pH
DFL  .C3                                 -999.25 : Drilling Fluid Loss
DFS  .PPM                                -999.25 : Drilling Fluid Salinity
BARI .                                       OFF : Barite On/Off Switch  
RMS  .OHMM                               -999.25 : Mud Resistivity
MST  .DEGC                               -999.25 : Rm Temperature
MSS  .                                  PENEIRAS : Mud Sample Source 
RMFS .OHMM                               -999.25 : Mud Filtrate Resistivity
MFST .DEGC                               -999.25 : Rmf Temperature
MFSS .                                    PRENSA : Mud Filtrate Source 
RMCS .OHMM                               -999.25 : Mud Cake Resistivity
MCST .DEGC                               -999.25 : Rmc Temperature
MCSS .                                    PRENSA : Mud Cake Source 
RMBH .OHMM                               -999.25 : Rm at BHT
STEM .DEGC                               -999.25 : Surface Temperature 
BHT  .DEGC                                  28.9 : Bottom Hole Temperature
MRT  .DEGC                                  28.9 : Max Recorded Temperature
MATR .                                   -999.25 : Neutron Porosity Matrix
MDEN .G/C3                               -999.25 : Matrix Density
FD   .G/C3                               -999.25 : Formation Fluid Density
LTYP .                                       RAW : Log Type
LSRV .                                       LWD : Logging Service  
TPOS .                                         C : Tool Position (centered or variable)
TOOL .                               GAM/MFR/BAP : Tool Strig
R1   .            COUNTY: Offshore : Remark Line 1
R2   .            INICIO DA CIRCULACAO: 28/12/2012 @ 07:36 h;  FIM DA CIRCULACAO: 30/12/2012 @ 02:17 h;  TEMPO TOTAL = 31.8 h. : Remark Line 2
R3   .            TEMPERATURA DE SUPERFICIE = 23.9 degC;  FUNDO = 28.9 degC @ 915 m. : Remark Line 3
R4   .            COORDENADAS DE SUPERFICIE (DATUM SAD69):  N: 7.111.926,174 m;  E: 381.711,234 m. LAT: -26:06:26.776; LONG: -46:11:00.404. /  BASE (DATUM SAD69):  N: 7.112.025,780 m;  E: 381.573,410 m. : Remark Line 4
R5   .            PRIMEIRAS LEITURAS:  HAGRT = 418m; RES = 418m; PRESS= 418m. : Remark Line 5
R6   .            ULTIMAS LEITURAS:  HAGRT = 898.11m; RES = 895.15m; PRESS= 887.37m. : Remark Line 6
R7   .            LAMA:  base agua; peso lama = 12 ppg; Salinidade =  N/A mg/l Total Cloretos; Oil = 0%; Agua= 100%; Baritina = N/A. : Remark Line 7
R8   .            INCLINACAO MAXIMA:  1.14 deg @ 469.82 m. : Remark Line 8
R9   .            DECLINACAO MAGNETICA:  -20.38 deg. : Remark Line 9
ENGI .            SHIDFAR/ANDRADE : Engineer's Names

~Curve
DEPT .M                                          : DEPTH
TVD  .M                                          : True Vertical Depth
ROP  .M/HR                                       : Rate of Penetration
RPD2_X.HR                                        : Exposure Time of 2 MHz 46" PH Calculated Downhole
GR   .GAPI                                       : Gamma Ray Total
RPD2 .OHMM                                       : 2 MHz 46" PH Calculated Downhole
RPM2 .OHMM                                       : 2 MHz 30" PH Calculated Downhole
RPS2 .OHMM                                       : 2 MHz 20" PH Calculated Downhole
ECD  .LB/G                                       : Equivalent Circulating Density
AP   .PSI                                        : Recorded Annulus Pressure
ATMP .DEGF                                       : Recorded Annulus Temperature
TVLATAVG.G                                       : TVM Lateral Average Accelerometer
TVAXAVG.G                                        : TVM Axial Average Accelerometer
TVTOTAVG.G                                       : TVM Average Total Accelerometer

~ASCII
# ...
      709.7268     656.7503    49.48         0.9116     80.7045       0.7795     0.5611     0.3702     9.7563    1061.1639    80.6000     0.0238     0.0227     0.0397
      709.8792     656.9027    48.90         0.8847     83.9573       0.7580     0.5538     0.3708     9.7531    1061.0406    80.6000     0.0269     0.0334     0.0517
      710.0316     657.0551    48.30         0.8600     91.6886       0.7418     0.5493     0.3702     9.7507    1061.0302    80.6000     0.0270     0.0353     0.0542
      710.1840     657.2075    48.16         0.7882     99.6991       0.7179     0.5489     0.3766     9.7504    1061.2524    80.6000     0.0293     0.0381     0.0605
      710.3364     657.3599    47.44         0.7880    102.6297       0.7009     0.5388     0.3720     9.7464    1061.1789    80.6000     0.0276     0.0343     0.0588
      710.4888     657.5123    46.72         0.7879    103.7152       0.6866     0.5308     0.3686     9.7443    1061.3003    80.6000     0.0283     0.0329     0.0589
      710.6412     657.6647    46.00         0.7880    101.5389       0.6713     0.5225     0.3641     9.7435    1061.4850    80.4615     0.0259     0.0363     0.0603
      710.7936     657.8171    44.97         0.7881    102.4309       0.6591     0.5164     0.3610     9.7430    1061.7011    80.3231     0.0261     0.0340     0.0584
      710.9460     657.9695    44.47         0.7873    103.4132       0.6547     0.5145     0.3588     9.7426    1061.9133    80.1846     0.0272     0.0382     0.0626
      711.0984     658.1219    43.70         0.7851    105.3626       0.6545     0.5142     0.3584     9.7419    1062.0306    80.0462     0.0269     0.0425     0.0655
      711.2508     658.2743    44.33         0.8392    105.9877       0.6538     0.5080     0.3530     9.7411    1062.1540    79.9077     0.0282     0.0405     0.0646
      711.4032     658.4267    45.35         0.8515    105.4044       0.6550     0.5076     0.3537     9.7376    1062.0219    79.7692     0.0288     0.0417     0.0647
      711.5556     658.5791    46.76         0.8776    105.5701       0.6577     0.5044     0.3530     9.7327    1061.7144    79.6308     0.0254     0.0383     0.0587
      711.7080     658.7315    47.55         0.8801    106.6394       0.6567     0.5032     0.3533     9.7262    1061.2562    79.4923     0.0240     0.0285     0.0486
      711.8604     658.8839    48.47         0.8641    104.0769       0.6600     0.5060     0.3569     9.7180    1060.6618    79.3538     0.0232     0.0277     0.0471
      712.0128     659.0363    48.39         0.8442    110.0460       0.6620     0.5078     0.3602     9.7124    1060.2713    79.2154     0.0213     0.0220     0.0409
      712.1652     659.1887    48.22         0.8307    118.6107       0.6640     0.5094     0.3615     9.7073    1059.9964    79.0769     0.0272     0.0206     0.0447
      712.3176     659.3411    48.04         0.7863    121.6256       0.6682     0.5152     0.3678     9.7044    1059.9283    78.9385     0.0326     0.0262     0.0535
      712.4700     659.4935    47.88         0.7869    122.9419       0.6673     0.5146     0.3673     9.7028    1060.0090    78.8000     0.0345     0.0262     0.0543
      712.6224     659.6459    47.66         0.7875    125.4923       0.6650     0.5137     0.3669     9.7025    1060.2144    78.8000     0.0352     0.0248     0.0533
      712.7748     659.7983    47.66         0.7874    123.2781       0.6638     0.5134     0.3659     9.7028    1060.5153    78.8000     0.0322     0.0229     0.0495
      712.9272     659.9507    47.66         0.7857    114.6089       0.6583     0.5114     0.3645     9.7028    1060.7613    78.8000     0.0277     0.0186     0.0421
      713.0796     660.1031    47.69         0.7850    111.1613       0.6482     0.5069     0.3643     9.7028    1061.0228    78.8000     0.0276     0.0153     0.0406
      713.2320     660.2555    47.74         0.7836    105.5954       0.6462     0.5054     0.3635     9.7011    1061.1340    78.8000     0.0252     0.0135     0.0386
      713.3844     660.4079    47.79         0.7856    102.0687       0.6434     0.5055     0.3653     9.6988    1061.1308    78.8000     0.0297     0.0140     0.0437
      713.5368     660.5603    47.85         0.7865    105.3203       0.6426     0.5053     0.3656     9.6956    1061.0536    78.8000     0.0319     0.0135     0.0454
      713.6892     660.7127    47.92         0.7882    103.5235       0.6444     0.5074     0.3659     9.6931    1061.0252    78.8000     0.0327     0.0130     0.0457
      713.8416     660.8651    48.02         0.8334    105.7837       0.6456     0.5039     0.3601     9.6911    1061.0324    78.8000     0.0289     0.0103     0.0392
      713.9940     661.0175    48.07         0.8598    106.3375       0.6473     0.5030     0.3562     9.6892    1061.0859    78.8000     0.0248     0.0076     0.0325
      714.1464     661.1699    48.11         0.8771    105.9639       0.6554     0.5062     0.3566     9.6878    1061.1956    78.8000     0.0198     0.0067     0.0265
      714.2988     661.3223    48.22         0.8805    106.2111       0.6617     0.5080     0.3574     9.6863    1061.3125    78.8000     0.0141     0.0050     0.0191
      714.4512     661.4747    48.33         0.8635    110.0444       0.6706     0.5148     0.3619     9.6850    1061.4779    78.8000     0.0109     0.0028     0.0137
      714.6036     661.6271    48.48         0.8479    114.0353       0.6764     0.5193     0.3664     9.6843    1061.6265    78.8000     0.0114     0.0030     0.0144
      714.7560     661.7795    48.53         0.7980    118.6447       0.6828     0.5276     0.3762     9.6842    1061.8265    78.8000     0.0111     0.0036     0.0147
      714.9084     661.9319    48.65         0.7992    120.2007       0.6867     0.5309     0.3782     9.6836    1061.9617    78.8000     0.0141     0.0034     0.0176
      715.0608     662.0843    48.65         0.8012    119.0971       0.7035     0.5493     0.3956     9.6832    1062.1516    78.8000     0.0206     0.0024     0.0230
      715.2132     662.2366    48.46         0.8024    114.9566       0.7160     0.5624     0.4074     9.6823    1062.3451    78.8000     0.0230     0.0048     0.0278
      715.3656     662.3890    48.33         0.8036    111.0922       0.7303     0.5789     0.4238     9.6807    1062.4168    78.8000     0.0254     0.0046     0.0300
      715.5180     662.5414    48.07         0.8045    107.4863       0.7431     0.5936     0.4372     9.6792    1062.5146    78.8000     0.0243     0.0049     0.0292
      715.6704     662.6938    47.81         0.8064    105.9112       0.7559     0.6139     0.4624     9.6782    1062.6448    78.8000     0.0214     0.0058     0.0272
      715.8228     662.8462    47.49         0.8081    110.4433       0.7658     0.6302     0.4824     9.6773    1062.8310    78.8000     0.0231     0.0044     0.0276
      715.9752     662.9986    47.16         0.8107    114.5597       0.7713     0.6426     0.5039     9.6775    1063.0921    78.8000     0.0197     0.0043     0.0240
      716.1276     663.1510    47.31         0.8114    117.8305       0.7553     0.6254     0.4883     9.6780    1063.3881    78.8000     0.0202     0.0039     0.0241
      716.2800     663.3034    47.64         0.8533    118.7557       0.7437     0.6065     0.4635     9.6783    1063.6702    78.8000     0.0246     0.0029     0.0275
      716.4324     663.4558    47.93         0.8646    119.0630       0.7188     0.5761     0.4285     9.6793    1063.9921    78.8000     0.0283     0.0038     0.0312
      716.5848     663.6082    48.40         0.8853    119.7826       0.6855     0.5337     0.3777     9.6791    1064.2311    78.8000     0.0318     0.0034     0.0341
      716.7372     663.7606    48.67         0.9010    119.3898       0.6639     0.5066     0.3484     9.6790    1064.5222    78.8000     0.0347     0.0037     0.0369
      716.8896     663.9130    49.22         0.8920    119.9611       0.6383     0.4777     0.3186     9.6788    1064.7769    78.8000     0.0391     0.0024     0.0401
