~Version
VERS .                                       2.0 : LOG ASCII STANDARD - VERSION 2.0
WRAP .                                        NO : WRAP MODE

~Well
STRT .M                                   343.96 : First Index Value
STOP .M                                   915.00 : Last Index Value
STEP .M                                   0.1524 : STEP
NULL .                                   -999.25 : NULL VALUE
CN   .                                    KAROON : Company
WN   .                             1-KPGL-1D-SPS : Well
FN   .                                  S-M-1101 : Field
BASI .                                    SANTOS : Location
LCC  .            Weatherford International Ltd. : Service Company
CTRY .                                    Brazil : Country
LAT  .                             -26:06:26.776 : Latitude
LONG .                             -46:11:00.404 : Longitude
XLOC .M                              7111926.174 : Global X/Y
YLOC .M                               381711.234 : Global X/Y
GDAT .                                     SAD69 : Geodetic Datum
HDAT .                                     SAD69 : Horizontal Datum 
STAT .                                 SAO PAULO : State
CNTY .                                  Offshore : County
APIN .                               86316026760 : API Number
BAP  .M                                  -999.25 : Elevation of Base Antepoco 
BS   .IN                                   26.00 : Bit Diameter
BS1  .IN                                   36.00 : Bit Diameter
BS2  .IN                                   26.00 : Bit Diameter
BS3  .IN                                 -999.25 : Bit Diameter
BS4  .IN                                 -999.25 : Bit Diameter
CBD  .M                                   418.00 : Casing Depth - Driller
CBD1 .M                                   418.00 : Casing Depth - Driller
CBD2 .M                                  -999.25 : Casing Depth - Driller
CBD3 .M                                  -999.25 : Casing Depth - Driller
CBL  .M                                   418.00 : Casing Depth - Logger
CBL1 .M                                   418.00 : Casing Depth - Logger
CBL2 .M                                  -999.25 : Casing Depth - Logger
CBL3 .M                                  -999.25 : Casing Depth - Logger
CS1  .IN                                   30.00 : Casing Diameter
CS2  .IN                                   30.00 : Casing Diameter
CS3  .IN                                 -999.25 : Casing Diameter
CSW  .LB/F                                553.21 : Casing Weight
CSW1 .LB/F                                553.21 : Casing Weight
CSW2 .LB/F                               -999.25 : Casing Weight
CSW3 .LB/F                               -999.25 : Casing Weight
EDF  .M                                    28.00 : Rotary Table Elevation
DMF  .                                        MR : Reference of Depth - Driller
TDD  .M                                   915.00 : Total Depth - Driller
TDD1 .M                                   418.00 : Total Depth - Driller
TDD2 .M                                   915.00 : Total Depth - Driller
TDD3 .M                                  -999.25 : Total Depth - Driller
HIDE .                             1-KPGL-1D-SPS : Header Identifier
MAGD .DEG                                 -20.38 : Magnetic Declination
WITN .                              J.MC CAMBELL : Witness

~Parameter
PDAT .                                        NM : Permanent Datum
APD  .                                        28 : Above Permanent Datum
DREF .                                        RT : Depth Reference
EDR  .M                                       28 : Elevation of Depth Reference
LMF  .                                        RT : Log Measured From
DMF  .                                        RT : Drilling Measured From
EGL  .M                                  -316.00 : Elevation - Ground Level
EKB  .M                                  -999.25 : Elevation - Kelly Bushing
EDF  .M                                       28 : Elevation - Drill Floor
RUN  .                                        01 : Run Name
LCC  .                                    KAROON : Logging Company Code 
LNAM .                                GR/MFR/BAP : Log Names Identificator 
LDAT .                                28/12/2012 : Logging Date
TCS  .HR                                   02:17 : Time Ciculation Stopped
TLAB .HR                                   20:40 : Time Logger At Bottom    
TDD  .M                                   915.00 : Depth - Driller
TDL  .M                                   915.00 : Depth - Logger
BLI  .M                                   898.13 : Bottom Log Interval
TLI  .M                                   418.00 : Top Log Interval
CBD  .M                                   418.00 : Casing Depth - Driller
CBL  .M                                   418.00 : Casing Depth - Logger
BS   .IN                                   26.00 : Bit Size
CS   .IN                                   30.00 : Casing Size Line
CSW  .LB/F                                553.21 : Casing Weight  
DFT  .                               Water Based : Type of Drilling Fluid
DFD  .LB/G                               -999.25 : Drilling Fluid Density
DFV  .S                                  -999.25 : Drilling Fluid Viscosity
DFPH .                                   -999.25 : Drilling Fluid pH
DFL  .C3                                 -999.25 : Drilling Fluid Loss
DFS  .PPM                                -999.25 : Drilling Fluid Salinity
BARI .                                       OFF : Barite On/Off Switch  
RMS  .OHMM                               -999.25 : Mud Resistivity
MST  .DEGC                               -999.25 : Rm Temperature
MSS  .                                  PENEIRAS : Mud Sample Source 
RMFS .OHMM                               -999.25 : Mud Filtrate Resistivity
MFST .DEGC                               -999.25 : Rmf Temperature
MFSS .                                    PRENSA : Mud Filtrate Source 
RMCS .OHMM                               -999.25 : Mud Cake Resistivity
MCST .DEGC                               -999.25 : Rmc Temperature
MCSS .                                    PRENSA : Mud Cake Source 
RMBH .OHMM                               -999.25 : Rm at BHT
STEM .DEGC                               -999.25 : Surface Temperature 
BHT  .DEGC                                  28.9 : Bottom Hole Temperature
MRT  .DEGC                                  28.9 : Max Recorded Temperature
MATR .                                   -999.25 : Neutron Porosity Matrix
MDEN .G/C3                               -999.25 : Matrix Density
FD   .G/C3                               -999.25 : Formation Fluid Density
LTYP .                                       RAW : Log Type
LSRV .                                       LWD : Logging Service  
TPOS .                                         C : Tool Position (centered or variable)
TOOL .                               GAM/MFR/BAP : Tool Strig
R1   .            COUNTY: Offshore : Remark Line 1
R2   .            INICIO DA CIRCULACAO: 28/12/2012 @ 07:36 h;  FIM DA CIRCULACAO: 30/12/2012 @ 02:17 h;  TEMPO TOTAL = 31.8 h. : Remark Line 2
R3   .            TEMPERATURA DE SUPERFICIE = 23.9 degC;  FUNDO = 28.9 degC @ 915 m. : Remark Line 3
R4   .            COORDENADAS DE SUPERFICIE (DATUM SAD69):  N: 7.111.926,174 m;  E: 381.711,234 m. LAT: -26:06:26.776; LONG: -46:11:00.404. /  BASE (DATUM SAD69):  N: 7.112.025,780 m;  E: 381.573,410 m. : Remark Line 4
R5   .            PRIMEIRAS LEITURAS:  HAGRT = 418m; RES = 418m; PRESS= 418m. : Remark Line 5
R6   .            ULTIMAS LEITURAS:  HAGRT = 898.11m; RES = 895.15m; PRESS= 887.37m. : Remark Line 6
R7   .            LAMA:  base agua; peso lama = 12 ppg; Salinidade =  N/A mg/l Total Cloretos; Oil = 0%; Agua= 100%; Baritina = N/A. : Remark Line 7
R8   .            INCLINACAO MAXIMA:  1.14 deg @ 469.82 m. : Remark Line 8
R9   .            DECLINACAO MAGNETICA:  -20.38 deg. : Remark Line 9
ENGI .            SHIDFAR/ANDRADE : Engineer's Names

~Curve
DEPT .M                                          : DEPTH
TVD  .M                                          : True Vertical Depth
ROP  .M/HR                                       : Rate of Penetration
RPD2_X.HR                                        : Exposure Time of 2 MHz 46" PH Calculated Downhole
GR   .GAPI                                       : Gamma Ray Total
RPD2 .OHMM                                       : 2 MHz 46" PH Calculated Downhole
RPM2 .OHMM                                       : 2 MHz 30" PH Calculated Downhole
RPS2 .OHMM                                       : 2 MHz 20" PH Calculated Downhole
ECD  .LB/G                                       : Equivalent Circulating Density
AP   .PSI                                        : Recorded Annulus Pressure
ATMP .DEGF                                       : Recorded Annulus Temperature
TVLATAVG.G                                       : TVM Lateral Average Accelerometer
TVAXAVG.G                                        : TVM Axial Average Accelerometer
TVTOTAVG.G                                       : TVM Average Total Accelerometer

~ASCII
# ...
      490.2708     437.3037    31.76         1.4395    112.4901       0.7142     0.5372     0.3704     9.8510     702.4795    75.2947     0.0096     0.0000     0.0096
      490.4232     437.4561    30.61         1.4653    110.6842       0.7156     0.5389     0.3715     9.8537     703.0143    75.3895     0.0087     0.0000     0.0087
      490.5756     437.6085    29.77         1.5011    108.8849       0.7173     0.5410     0.3730     9.8537     703.2888    75.4842     0.0100     0.0000     0.0100
      490.7280     437.7608    28.75         1.5147    109.3407       0.7250     0.5459     0.3765     9.8517     703.4609    75.5789     0.0108     0.0000     0.0108
      490.8804     437.9132    28.37         1.4868    109.9020       0.7282     0.5467     0.3770     9.8499     703.5782    75.6737     0.0102     0.0000     0.0102
      491.0328     438.0656    28.02         1.4356    109.6098       0.7288     0.5462     0.3776     9.8510     703.8674    75.7684     0.0100     0.0000     0.0100
      491.1852     438.2180    26.89         1.4099    112.4042       0.7291     0.5468     0.3795     9.8621     704.8830    75.8632     0.0111     0.0000     0.0111
      491.3376     438.3704    26.20         1.3523    108.5568       0.7270     0.5454     0.3798     9.8887     707.0520    75.9579     0.0123     0.0000     0.0123
      491.4900     438.5228    24.90         1.3503    108.2972       0.7224     0.5389     0.3740     9.9112     708.8462    76.0526     0.0146     0.0000     0.0146
      491.6424     438.6751    23.41         1.3739    109.3651       0.7124     0.5236     0.3597     9.9405     711.1164    76.1474     0.0151     0.0000     0.0151
      491.7948     438.8275    22.55         1.3801    107.7155       0.7091     0.5170     0.3517     9.9665     713.1948    76.2421     0.0144     0.0000     0.0144
      491.9472     438.9799    21.29         1.3895    108.8584       0.7062     0.5103     0.3422     9.9817     714.4882    76.3368     0.0139     0.0000     0.0139
      492.0996     439.1323    20.97         1.4015    109.5084       0.7101     0.5153     0.3477     9.9910     715.4297    76.4316     0.0131     0.0000     0.0131
      492.2520     439.2847    20.86         1.3980    113.3946       0.7133     0.5213     0.3530     9.9920     715.8744    76.5263     0.0121     0.0000     0.0121
      492.4044     439.4370    20.72         1.4068    114.9670       0.7165     0.5278     0.3599     9.9878     715.8275    76.6211     0.0084     0.0000     0.0084
      492.5568     439.5894    20.57         1.4191    116.1202       0.7241     0.5416     0.3770     9.9860     715.8908    76.7158     0.0095     0.0000     0.0095
      492.7092     439.7418    20.41         1.3751    117.8422       0.7321     0.5448     0.3759     9.9823     715.8471    76.8105     0.0084     0.0000     0.0084
      492.8616     439.8942    20.30         1.3839    119.9555       0.7366     0.5433     0.3732     9.9760     715.6858    76.9053     0.0100     0.0000     0.0100
      493.0140     440.0466    20.23         1.3667    114.2571       0.7382     0.5429     0.3717     9.9711     715.5693    77.0000     0.0122     0.0000     0.0122
      493.1664     440.1990    20.17         1.3442    111.0748       0.7369     0.5387     0.3670     9.9629     715.2881    77.0000     0.0123     0.0000     0.0123
      493.3188     440.3513    20.07         1.3509    106.9393       0.7366     0.5387     0.3678     9.9534     714.9084    77.0000     0.0152     0.0000     0.0152
      493.4712     440.5037    19.99         1.3299    100.5553       0.7308     0.5365     0.3689     9.9493     714.9203    77.0000     0.0130     0.0000     0.0130
      493.6236     440.6561    19.82         1.3190    104.1737       0.7244     0.5312     0.3684     9.9447     714.8669    77.0000     0.0101     0.0000     0.0101
      493.7760     440.8085    19.64         1.2871    104.2903       0.7185     0.5301     0.3702     9.9400     714.8121    77.0000     0.0067     0.0000     0.0067
      493.9284     440.9609    19.57         1.3090    106.7987       0.7200     0.5341     0.3761     9.9400     715.0591    76.7750     0.0022     0.0000     0.0022
      494.0808     441.1133    19.45         1.3384    111.2284       0.7181     0.5314     0.3755     9.9405     715.3249    76.5500     0.0014     0.0000     0.0014
      494.2332     441.2656    19.01         1.3506    111.1536       0.7151     0.5317     0.3751     9.9427     715.7152    76.3250     0.0000     0.0000     0.0000
      494.3856     441.4180    18.61         1.3736    110.5708       0.7127     0.5300     0.3761     9.9436     716.0507    76.1000     0.0000     0.0000     0.0000
      494.5380     441.5704    18.09         1.3730    113.0729       0.7073     0.5226     0.3684     9.9434     716.3304    75.8750     0.0012     0.0000     0.0012
      494.6904     441.7228    17.57         1.3405    118.5122       0.7006     0.5159     0.3630     9.9407     716.3274    75.6500     0.0016     0.0000     0.0016
      494.8428     441.8752    17.21         1.3074    118.9880       0.6950     0.5092     0.3597     9.9332     716.0175    75.4250     0.0022     0.0000     0.0022
      494.9952     442.0276    16.99         1.2663    117.9715       0.6892     0.5012     0.3516     9.9223     715.5201    75.2000     0.0031     0.0000     0.0031
      495.1476     442.1799    16.72         1.2274    114.9982       0.6873     0.5015     0.3538     9.9062     714.7060    75.2000     0.0028     0.0000     0.0028
      495.3000     442.3323    16.38         1.2112    111.3733       0.6847     0.4992     0.3523     9.8819     713.3462    75.2000     0.0025     0.0000     0.0025
      495.4524     442.4847    14.71         1.2163    106.6379       0.6858     0.4991     0.3505     9.8382     710.7389    75.2000     0.0019     0.0000     0.0019
      495.6048     442.6371    13.80         1.2079    101.6235       0.6858     0.4979     0.3486     9.8167     709.5121    75.2000     0.0000     0.0000     0.0000
      495.7572     442.7895    12.50         1.2195    103.6944       0.6878     0.5004     0.3502     9.8153     709.5261    75.2000     0.0000     0.0000     0.0000
      495.9096     442.9419    11.34         1.1998    107.2435       0.6889     0.5023     0.3514     9.8232     710.2593    75.8508     0.0000     0.0000     0.0000
      496.0620     443.0943    10.42         1.1946    114.0050       0.6894     0.5041     0.3532     9.8389     711.6042    75.6864     0.0015     0.0000     0.0015
      496.2144     443.2466     9.28         1.1888    116.7189       0.6921     0.5078     0.3567     9.8438     712.2321    75.4079     0.0021     0.0000     0.0021
      496.3668     443.3990     8.86         1.1563    120.9076       0.6925     0.5084     0.3579     9.8480     712.6713    75.4431     0.0027     0.0000     0.0027
      496.5192     443.5514     8.86         1.1566    123.4746       0.6952     0.5093     0.3583     9.8507     713.0471    75.2281     0.0048     0.0000     0.0048
      496.6716     443.7038     8.86         1.1524    121.5570       0.6975     0.5092     0.3577     9.8444     712.6903    74.8516     0.0048     0.0000     0.0048
      496.8240     443.8562     8.86         1.1150    119.9849       0.7140     0.5146     0.3582     9.8402     712.4640    74.8509     0.0050     0.0000     0.0050
      496.9764     444.0086     8.86         1.1124    114.2362       0.7289     0.5217     0.3593     9.8296     711.8686    73.4000     0.0036     0.0000     0.0036
      497.1288     444.1609     8.86         1.0913    110.9638       0.7408     0.5269     0.3612     9.8182     711.3435    73.4000     0.0083     0.0000     0.0083
      497.2812     444.3133     8.86         1.0660    111.8990       0.7577     0.5363     0.3636     9.8382     713.4330    75.2000     0.0094     0.0000     0.0094
      497.4336     444.4657     8.28         1.0539    108.6903       0.7644     0.5410     0.3652     9.8446     714.1387    77.0000     0.0138     0.0000     0.0138
