~Version
VERS .                                       2.0 : LOG ASCII STANDARD - VERSION 2.0
WRAP .                                        NO : WRAP MODE

~Well
STRT .M                                   343.96 : First Index Value
STOP .M                                   915.00 : Last Index Value
STEP .M                                   0.1524 : STEP
NULL .                                   -999.25 : NULL VALUE
CN   .                                    KAROON : Company
WN   .                             1-KPGL-1D-SPS : Well
FN   .                                  S-M-1101 : Field
BASI .                                    SANTOS : Location
LCC  .            Weatherford International Ltd. : Service Company
CTRY .                                    Brazil : Country
LAT  .                             -26:06:26.776 : Latitude
LONG .                             -46:11:00.404 : Longitude
XLOC .M                              7111926.174 : Global X/Y
YLOC .M                               381711.234 : Global X/Y
GDAT .                                     SAD69 : Geodetic Datum
HDAT .                                     SAD69 : Horizontal Datum 
STAT .                                 SAO PAULO : State
CNTY .                                  Offshore : County
APIN .                               86316026760 : API Number
BAP  .M                                  -999.25 : Elevation of Base Antepoco 
BS   .IN                                   26.00 : Bit Diameter
BS1  .IN                                   36.00 : Bit Diameter
BS2  .IN                                   26.00 : Bit Diameter
BS3  .IN                                 -999.25 : Bit Diameter
BS4  .IN                                 -999.25 : Bit Diameter
CBD  .M                                   418.00 : Casing Depth - Driller
CBD1 .M                                   418.00 : Casing Depth - Driller
CBD2 .M                                  -999.25 : Casing Depth - Driller
CBD3 .M                                  -999.25 : Casing Depth - Driller
CBL  .M                                   418.00 : Casing Depth - Logger
CBL1 .M                                   418.00 : Casing Depth - Logger
CBL2 .M                                  -999.25 : Casing Depth - Logger
CBL3 .M                                  -999.25 : Casing Depth - Logger
CS1  .IN                                   30.00 : Casing Diameter
CS2  .IN                                   30.00 : Casing Diameter
CS3  .IN                                 -999.25 : Casing Diameter
CSW  .LB/F                                553.21 : Casing Weight
CSW1 .LB/F                                553.21 : Casing Weight
CSW2 .LB/F                               -999.25 : Casing Weight
CSW3 .LB/F                               -999.25 : Casing Weight
EDF  .M                                    28.00 : Rotary Table Elevation
DMF  .                                        MR : Reference of Depth - Driller
TDD  .M                                   915.00 : Total Depth - Driller
TDD1 .M                                   418.00 : Total Depth - Driller
TDD2 .M                                   915.00 : Total Depth - Driller
TDD3 .M                                  -999.25 : Total Depth - Driller
HIDE .                             1-KPGL-1D-SPS : Header Identifier
MAGD .DEG                                 -20.38 : Magnetic Declination
WITN .                              J.MC CAMBELL : Witness

~Parameter
PDAT .                                        NM : Permanent Datum
APD  .                                        28 : Above Permanent Datum
DREF .                                        RT : Depth Reference
EDR  .M                                       28 : Elevation of Depth Reference
LMF  .                                        RT : Log Measured From
DMF  .                                        RT : Drilling Measured From
EGL  .M                                  -316.00 : Elevation - Ground Level
EKB  .M                                  -999.25 : Elevation - Kelly Bushing
EDF  .M                                       28 : Elevation - Drill Floor
RUN  .                                        01 : Run Name
LCC  .                                    KAROON : Logging Company Code 
LNAM .                                GR/MFR/BAP : Log Names Identificator 
LDAT .                                28/12/2012 : Logging Date
TCS  .HR                                   02:17 : Time Ciculation Stopped
TLAB .HR                                   20:40 : Time Logger At Bottom    
TDD  .M                                   915.00 : Depth - Driller
TDL  .M                                   915.00 : Depth - Logger
BLI  .M                                   898.13 : Bottom Log Interval
TLI  .M                                   418.00 : Top Log Interval
CBD  .M                                   418.00 : Casing Depth - Driller
CBL  .M                                   418.00 : Casing Depth - Logger
BS   .IN                                   26.00 : Bit Size
CS   .IN                                   30.00 : Casing Size Line
CSW  .LB/F                                553.21 : Casing Weight  
DFT  .                               Water Based : Type of Drilling Fluid
DFD  .LB/G                               -999.25 : Drilling Fluid Density
DFV  .S                                  -999.25 : Drilling Fluid Viscosity
DFPH .                                   -999.25 : Drilling Fluid pH
DFL  .C3                                 -999.25 : Drilling Fluid Loss
DFS  .PPM                                -999.25 : Drilling Fluid Salinity
BARI .                                       OFF : Barite On/Off Switch  
RMS  .OHMM                               -999.25 : Mud Resistivity
MST  .DEGC                               -999.25 : Rm Temperature
MSS  .                                  PENEIRAS : Mud Sample Source 
RMFS .OHMM                               -999.25 : Mud Filtrate Resistivity
MFST .DEGC                               -999.25 : Rmf Temperature
MFSS .                                    PRENSA : Mud Filtrate Source 
RMCS .OHMM                               -999.25 : Mud Cake Resistivity
MCST .DEGC                               -999.25 : Rmc Temperature
MCSS .                                    PRENSA : Mud Cake Source 
RMBH .OHMM                               -999.25 : Rm at BHT
STEM .DEGC                               -999.25 : Surface Temperature 
BHT  .DEGC                                  28.9 : Bottom Hole Temperature
MRT  .DEGC                                  28.9 : Max Recorded Temperature
MATR .                                   -999.25 : Neutron Porosity Matrix
MDEN .G/C3                               -999.25 : Matrix Density
FD   .G/C3                               -999.25 : Formation Fluid Density
LTYP .                                       RAW : Log Type
LSRV .                                       LWD : Logging Service  
TPOS .                                         C : Tool Position (centered or variable)
TOOL .                               GAM/MFR/BAP : Tool Strig
R1   .            COUNTY: Offshore : Remark Line 1
R2   .            INICIO DA CIRCULACAO: 28/12/2012 @ 07:36 h;  FIM DA CIRCULACAO: 30/12/2012 @ 02:17 h;  TEMPO TOTAL = 31.8 h. : Remark Line 2
R3   .            TEMPERATURA DE SUPERFICIE = 23.9 degC;  FUNDO = 28.9 degC @ 915 m. : Remark Line 3
R4   .            COORDENADAS DE SUPERFICIE (DATUM SAD69):  N: 7.111.926,174 m;  E: 381.711,234 m. LAT: -26:06:26.776; LONG: -46:11:00.404. /  BASE (DATUM SAD69):  N: 7.112.025,780 m;  E: 381.573,410 m. : Remark Line 4
R5   .            PRIMEIRAS LEITURAS:  HAGRT = 418m; RES = 418m; PRESS= 418m. : Remark Line 5
R6   .            ULTIMAS LEITURAS:  HAGRT = 898.11m; RES = 895.15m; PRESS= 887.37m. : Remark Line 6
R7   .            LAMA:  base agua; peso lama = 12 ppg; Salinidade =  N/A mg/l Total Cloretos; Oil = 0%; Agua= 100%; Baritina = N/A. : Remark Line 7
R8   .            INCLINACAO MAXIMA:  1.14 deg @ 469.82 m. : Remark Line 8
R9   .            DECLINACAO MAGNETICA:  -20.38 deg. : Remark Line 9
ENGI .            SHIDFAR/ANDRADE : Engineer's Names

~Curve
DEPT .M                                          : DEPTH
TVD  .M                                          : True Vertical Depth
ROP  .M/HR                                       : Rate of Penetration
RPD2_X.HR                                        : Exposure Time of 2 MHz 46" PH Calculated Downhole
GR   .GAPI                                       : Gamma Ray Total
RPD2 .OHMM                                       : 2 MHz 46" PH Calculated Downhole
RPM2 .OHMM                                       : 2 MHz 30" PH Calculated Downhole
RPS2 .OHMM                                       : 2 MHz 20" PH Calculated Downhole
ECD  .LB/G                                       : Equivalent Circulating Density
AP   .PSI                                        : Recorded Annulus Pressure
ATMP .DEGF                                       : Recorded Annulus Temperature
TVLATAVG.G                                       : TVM Lateral Average Accelerometer
TVAXAVG.G                                        : TVM Axial Average Accelerometer
TVTOTAVG.G                                       : TVM Average Total Accelerometer

~ASCII
# ...
      892.6068     839.6298    49.13         0.7050    138.8412       0.6336     0.4930     0.3626    -999.25      -999.25    -999.25     0.0000     0.0000     0.0000
      892.7592     839.7822    50.28         0.7043    144.7434       0.6421     0.4982     0.3666    -999.25      -999.25    -999.25     0.0000     0.0000     0.0000
      892.9116     839.9346    52.05         0.7047    147.8566       0.6432     0.4994     0.3663    -999.25      -999.25    -999.25     0.0000     0.0000     0.0000
      893.0640     840.0870    53.19         0.7050    147.3539       0.6430     0.5005     0.3664    -999.25      -999.25    -999.25     0.0000     0.0000     0.0000
      893.2164     840.2394    55.13         0.7053    145.6465       0.6416     0.5012     0.3669    -999.25      -999.25    -999.25     0.0000     0.0000     0.0000
      893.3688     840.3918    55.85         0.7065    146.6159       0.6361     0.4971     0.3653    -999.25      -999.25    -999.25     0.0000     0.0000     0.0000
      893.5212     840.5442    55.85         0.7070    143.3681       0.6310     0.4949     0.3648    -999.25      -999.25    -999.25     0.0000     0.0000     0.0000
      893.6736     840.6966    54.76         0.7075    140.2010       0.6262     0.4921     0.3637    -999.25      -999.25    -999.25     0.0000     0.0000     0.0000
      893.8260     840.8490    53.59         0.7090    140.4847       0.6108     0.4819     0.3588    -999.25      -999.25    -999.25     0.0000     0.0000     0.0000
      893.9784     841.0014    52.69         0.7098    138.5862       0.5998     0.4775     0.3567    -999.25      -999.25    -999.25     0.0000     0.0000     0.0000
      894.1308     841.1538    51.11         0.7111    139.3469       0.5897     0.4714     0.3532    -999.25      -999.25    -999.25     0.0000     0.0000     0.0000
      894.2832     841.3062    51.11         0.7117    140.7089       0.5848     0.4677     0.3517    -999.25      -999.25    -999.25     0.0000     0.0000     0.0000
      894.4356     841.4586    51.11         0.7139    137.7604       0.5730     0.4602     0.3493    -999.25      -999.25    -999.25     0.0000     0.0000     0.0000
      894.5880     841.6110    51.11         0.7148    127.1957       0.5700     0.4574     0.3485    -999.25      -999.25    -999.25     0.0000     0.0000     0.0000
      894.7404     841.7634    51.55         0.7159    129.1697       0.5663     0.4547     0.3478    -999.25      -999.25    -999.25     0.0019     0.0000     0.0019
      894.8928     841.9158    51.93         0.7172    127.1666       0.5612     0.4512     0.3466    -999.25      -999.25    -999.25     0.0026     0.0000     0.0026
      895.0452     842.0682    52.23         0.7176    131.5002       0.5619     0.4512     0.3467    -999.25      -999.25    -999.25     0.0037     0.0000     0.0037
      895.1976     842.2206    52.61         0.7185    136.0279       0.5595     0.4502     0.3465    -999.25      -999.25    -999.25     0.0064     0.0000     0.0064
      895.3500     842.3730    53.06         0.7184    140.9557       0.5627     0.4524     0.3469    -999.25      -999.25    -999.25     0.0081     0.0000     0.0081
      895.5024     842.5254    53.06         0.7184    150.5159       0.5627     0.4524     0.3469    -999.25      -999.25    -999.25     0.0089     0.0000     0.0089
      895.6548     842.6778    53.67        -999.25    148.1765      -999.25    -999.25    -999.25    -999.25      -999.25    -999.25     0.0088     0.0000     0.0088
      895.8072     842.8302    54.48        -999.25    147.0220      -999.25    -999.25    -999.25    -999.25      -999.25    -999.25     0.0069     0.0000     0.0069
      895.9596     842.9826    55.12        -999.25    145.8076      -999.25    -999.25    -999.25    -999.25      -999.25    -999.25     0.0048     0.0000     0.0048
      896.1120     843.1350    56.15        -999.25    141.1206      -999.25    -999.25    -999.25    -999.25      -999.25    -999.25     0.0021     0.0000     0.0021
      896.2644     843.2874    57.27        -999.25    140.5895      -999.25    -999.25    -999.25    -999.25      -999.25    -999.25     0.0015     0.0000     0.0015
      896.4168     843.4398    58.37        -999.25    133.7713      -999.25    -999.25    -999.25    -999.25      -999.25    -999.25     0.0016     0.0000     0.0016
      896.5692     843.5922    58.37        -999.25    130.2767      -999.25    -999.25    -999.25    -999.25      -999.25    -999.25     0.0021     0.0000     0.0021
      896.7216     843.7446    58.37        -999.25    128.6704      -999.25    -999.25    -999.25    -999.25      -999.25    -999.25     0.0027     0.0000     0.0027
      896.8740     843.8970    58.37        -999.25    126.5498      -999.25    -999.25    -999.25    -999.25      -999.25    -999.25     0.0036     0.0000     0.0036
      897.0264     844.0494    58.37        -999.25    129.2983      -999.25    -999.25    -999.25    -999.25      -999.25    -999.25     0.0026     0.0000     0.0026
      897.1788     844.2018    58.37        -999.25    129.8026      -999.25    -999.25    -999.25    -999.25      -999.25    -999.25     0.0019     0.0000     0.0019
      897.3312     844.3542    58.37        -999.25    127.5799      -999.25    -999.25    -999.25    -999.25      -999.25    -999.25     0.0026     0.0000     0.0026
      897.4836     844.5066    58.37        -999.25    129.4922      -999.25    -999.25    -999.25    -999.25      -999.25    -999.25     0.0016     0.0000     0.0016
      897.6360     844.6590    58.37        -999.25    125.4799      -999.25    -999.25    -999.25    -999.25      -999.25    -999.25     0.0021     0.0000     0.0021
      897.7884     844.8114    58.37        -999.25    124.3975      -999.25    -999.25    -999.25    -999.25      -999.25    -999.25     0.0032     0.0000     0.0032
      897.9408     844.9638    58.37        -999.25    121.0573      -999.25    -999.25    -999.25    -999.25      -999.25    -999.25     0.0033     0.0000     0.0033
      898.0932     845.1162    58.37        -999.25    118.9217      -999.25    -999.25    -999.25    -999.25      -999.25    -999.25     0.0035     0.0000     0.0035
      898.2456     845.2686    58.37        -999.25    115.4873      -999.25    -999.25    -999.25    -999.25      -999.25    -999.25     0.0047     0.0000     0.0047
      898.3980     845.4210    58.37        -999.25     97.7804      -999.25    -999.25    -999.25    -999.25      -999.25    -999.25     0.0000     0.0000     0.0000
      898.5504     845.5734    58.37        -999.25     97.7804      -999.25    -999.25    -999.25    -999.25      -999.25    -999.25     0.0000     0.0000     0.0000
      898.7028     845.7258    56.93        -999.25     -999.25      -999.25    -999.25    -999.25    -999.25      -999.25    -999.25    -999.25    -999.25    -999.25
      898.8552     845.8782    56.05        -999.25     -999.25      -999.25    -999.25    -999.25    -999.25      -999.25    -999.25    -999.25    -999.25    -999.25
      899.0076     846.0306    54.26        -999.25     -999.25      -999.25    -999.25    -999.25    -999.25      -999.25    -999.25    -999.25    -999.25    -999.25
      899.1600     846.1830    57.57        -999.25     -999.25      -999.25    -999.25    -999.25    -999.25      -999.25    -999.25    -999.25    -999.25    -999.25
      899.3124     846.3354    62.85        -999.25     -999.25      -999.25    -999.25    -999.25    -999.25      -999.25    -999.25    -999.25    -999.25    -999.25
      899.4648     846.4878    69.73        -999.25     -999.25      -999.25    -999.25    -999.25    -999.25      -999.25    -999.25    -999.25    -999.25    -999.25
      899.6172     846.6402    75.23        -999.25     -999.25      -999.25    -999.25    -999.25    -999.25      -999.25    -999.25    -999.25    -999.25    -999.25
      899.7696     846.7926    78.03        -999.25     -999.25      -999.25    -999.25    -999.25    -999.25      -999.25    -999.25    -999.25    -999.25    -999.25
