~Version
VERS .                                       2.0 : LOG ASCII STANDARD - VERSION 2.0
WRAP .                                        NO : WRAP MODE

~Well
STRT .M                                   343.96 : First Index Value
STOP .M                                   915.00 : Last Index Value
STEP .M                                   0.1524 : STEP
NULL .                                   -999.25 : NULL VALUE
CN   .                                    KAROON : Company
WN   .                             1-KPGL-1D-SPS : Well
FN   .                                  S-M-1101 : Field
BASI .                                    SANTOS : Location
LCC  .            Weatherford International Ltd. : Service Company
CTRY .                                    Brazil : Country
LAT  .                             -26:06:26.776 : Latitude
LONG .                             -46:11:00.404 : Longitude
XLOC .M                              7111926.174 : Global X/Y
YLOC .M                               381711.234 : Global X/Y
GDAT .                                     SAD69 : Geodetic Datum
HDAT .                                     SAD69 : Horizontal Datum 
STAT .                                 SAO PAULO : State
CNTY .                                  Offshore : County
APIN .                               86316026760 : API Number
BAP  .M                                  -999.25 : Elevation of Base Antepoco 
BS   .IN                                   26.00 : Bit Diameter
BS1  .IN                                   36.00 : Bit Diameter
BS2  .IN                                   26.00 : Bit Diameter
BS3  .IN                                 -999.25 : Bit Diameter
BS4  .IN                                 -999.25 : Bit Diameter
CBD  .M                                   418.00 : Casing Depth - Driller
CBD1 .M                                   418.00 : Casing Depth - Driller
CBD2 .M                                  -999.25 : Casing Depth - Driller
CBD3 .M                                  -999.25 : Casing Depth - Driller
CBL  .M                                   418.00 : Casing Depth - Logger
CBL1 .M                                   418.00 : Casing Depth - Logger
CBL2 .M                                  -999.25 : Casing Depth - Logger
CBL3 .M                                  -999.25 : Casing Depth - Logger
CS1  .IN                                   30.00 : Casing Diameter
CS2  .IN                                   30.00 : Casing Diameter
CS3  .IN                                 -999.25 : Casing Diameter
CSW  .LB/F                                553.21 : Casing Weight
CSW1 .LB/F                                553.21 : Casing Weight
CSW2 .LB/F                               -999.25 : Casing Weight
CSW3 .LB/F                               -999.25 : Casing Weight
EDF  .M                                    28.00 : Rotary Table Elevation
DMF  .                                        MR : Reference of Depth - Driller
TDD  .M                                   915.00 : Total Depth - Driller
TDD1 .M                                   418.00 : Total Depth - Driller
TDD2 .M                                   915.00 : Total Depth - Driller
TDD3 .M                                  -999.25 : Total Depth - Driller
HIDE .                             1-KPGL-1D-SPS : Header Identifier
MAGD .DEG                                 -20.38 : Magnetic Declination
WITN .                              J.MC CAMBELL : Witness

~Parameter
PDAT .                                        NM : Permanent Datum
APD  .                                        28 : Above Permanent Datum
DREF .                                        RT : Depth Reference
EDR  .M                                       28 : Elevation of Depth Reference
LMF  .                                        RT : Log Measured From
DMF  .                                        RT : Drilling Measured From
EGL  .M                                  -316.00 : Elevation - Ground Level
EKB  .M                                  -999.25 : Elevation - Kelly Bushing
EDF  .M                                       28 : Elevation - Drill Floor
RUN  .                                        01 : Run Name
LCC  .                                    KAROON : Logging Company Code 
LNAM .                                GR/MFR/BAP : Log Names Identificator 
LDAT .                                28/12/2012 : Logging Date
TCS  .HR                                   02:17 : Time Ciculation Stopped
TLAB .HR                                   20:40 : Time Logger At Bottom    
TDD  .M                                   915.00 : Depth - Driller
TDL  .M                                   915.00 : Depth - Logger
BLI  .M                                   898.13 : Bottom Log Interval
TLI  .M                                   418.00 : Top Log Interval
CBD  .M                                   418.00 : Casing Depth - Driller
CBL  .M                                   418.00 : Casing Depth - Logger
BS   .IN                                   26.00 : Bit Size
CS   .IN                                   30.00 : Casing Size Line
CSW  .LB/F                                553.21 : Casing Weight  
DFT  .                               Water Based : Type of Drilling Fluid
DFD  .LB/G                               -999.25 : Drilling Fluid Density
DFV  .S                                  -999.25 : Drilling Fluid Viscosity
DFPH .                                   -999.25 : Drilling Fluid pH
DFL  .C3                                 -999.25 : Drilling Fluid Loss
DFS  .PPM                                -999.25 : Drilling Fluid Salinity
BARI .                                       OFF : Barite On/Off Switch  
RMS  .OHMM                               -999.25 : Mud Resistivity
MST  .DEGC                               -999.25 : Rm Temperature
MSS  .                                  PENEIRAS : Mud Sample Source 
RMFS .OHMM                               -999.25 : Mud Filtrate Resistivity
MFST .DEGC                               -999.25 : Rmf Temperature
MFSS .                                    PRENSA : Mud Filtrate Source 
RMCS .OHMM                               -999.25 : Mud Cake Resistivity
MCST .DEGC                               -999.25 : Rmc Temperature
MCSS .                                    PRENSA : Mud Cake Source 
RMBH .OHMM                               -999.25 : Rm at BHT
STEM .DEGC                               -999.25 : Surface Temperature 
BHT  .DEGC                                  28.9 : Bottom Hole Temperature
MRT  .DEGC                                  28.9 : Max Recorded Temperature
MATR .                                   -999.25 : Neutron Porosity Matrix
MDEN .G/C3                               -999.25 : Matrix Density
FD   .G/C3                               -999.25 : Formation Fluid Density
LTYP .                                       RAW : Log Type
LSRV .                                       LWD : Logging Service  
TPOS .                                         C : Tool Position (centered or variable)
TOOL .                               GAM/MFR/BAP : Tool Strig
R1   .            COUNTY: Offshore : Remark Line 1
R2   .            INICIO DA CIRCULACAO: 28/12/2012 @ 07:36 h;  FIM DA CIRCULACAO: 30/12/2012 @ 02:17 h;  TEMPO TOTAL = 31.8 h. : Remark Line 2
R3   .            TEMPERATURA DE SUPERFICIE = 23.9 degC;  FUNDO = 28.9 degC @ 915 m. : Remark Line 3
R4   .            COORDENADAS DE SUPERFICIE (DATUM SAD69):  N: 7.111.926,174 m;  E: 381.711,234 m. LAT: -26:06:26.776; LONG: -46:11:00.404. /  BASE (DATUM SAD69):  N: 7.112.025,780 m;  E: 381.573,410 m. : Remark Line 4
R5   .            PRIMEIRAS LEITURAS:  HAGRT = 418m; RES = 418m; PRESS= 418m. : Remark Line 5
R6   .            ULTIMAS LEITURAS:  HAGRT = 898.11m; RES = 895.15m; PRESS= 887.37m. : Remark Line 6
R7   .            LAMA:  base agua; peso lama = 12 ppg; Salinidade =  N/A mg/l Total Cloretos; Oil = 0%; Agua= 100%; Baritina = N/A. : Remark Line 7
R8   .            INCLINACAO MAXIMA:  1.14 deg @ 469.82 m. : Remark Line 8
R9   .            DECLINACAO MAGNETICA:  -20.38 deg. : Remark Line 9
ENGI .            SHIDFAR/ANDRADE : Engineer's Names

~Curve
DEPT .M                                          : DEPTH
TVD  .M                                          : True Vertical Depth
ROP  .M/HR                                       : Rate of Penetration
RPD2_X.HR                                        : Exposure Time of 2 MHz 46" PH Calculated Downhole
GR   .GAPI                                       : Gamma Ray Total
RPD2 .OHMM                                       : 2 MHz 46" PH Calculated Downhole
RPM2 .OHMM                                       : 2 MHz 30" PH Calculated Downhole
RPS2 .OHMM                                       : 2 MHz 20" PH Calculated Downhole
ECD  .LB/G                                       : Equivalent Circulating Density
AP   .PSI                                        : Recorded Annulus Pressure
ATMP .DEGF                                       : Recorded Annulus Temperature
TVLATAVG.G                                       : TVM Lateral Average Accelerometer
TVAXAVG.G                                        : TVM Axial Average Accelerometer
TVTOTAVG.G                                       : TVM Average Total Accelerometer

~ASCII
      343.9668     300.3194     0.00        57.5551     29.8668    1296.5586     0.7763     1.0166     9.9795     478.3942    -999.25    -999.25    -999.25    -999.25
      344.1192     300.4154     0.00        31.2381     31.5735    1882.1735     0.6923     0.9250     9.9803     478.5992    -999.25    -999.25    -999.25    -999.25
      344.2716     300.5116     0.00        16.4052     33.5614    2488.9371     0.6857     0.8299     9.9814     478.8885    75.2000    -999.25    -999.25    -999.25
      344.4240     300.6080     0.00         3.7768     35.3882    2756.1257     0.6672     0.7505     9.9827     479.0987    75.2000    -999.25    -999.25    -999.25
      344.5764     300.7046     0.00         1.1902     37.6453    2959.3288     0.6480     0.6991     9.9837     479.2944    75.2000    -999.25    -999.25    -999.25
      344.7288     300.8014     0.00         1.1971     39.2485    3096.1470     0.6479     0.6566     9.9849     479.4808    75.2000    -999.25    -999.25    -999.25
      344.8812     300.8984     0.00         1.2066     39.3356    2980.2566     0.6367     0.6278     9.9880     479.8667    75.2000    -999.25    -999.25    -999.25
      345.0336     300.9957     0.00         1.2341     39.8853    3111.1680     0.6308     0.6092     9.9911     480.2565    75.2000    -999.25    -999.25    -999.25
      345.1860     301.0931     0.00         1.2636     39.2216    3130.2324     0.6134     0.5954     9.9918     480.4711    76.4112    -999.25    -999.25    -999.25
      345.3384     301.1908     0.00         1.3081     37.3896    3085.7075     0.6263     0.5892     9.9909     480.5125    77.0000    -999.25    -999.25    -999.25
      345.4908     301.2887     0.00         1.3174     36.9653    3240.6176     0.6331     0.5908     9.9906     480.5459    77.0000    -999.25    -999.25    -999.25
      345.6432     301.3868     0.00         1.3170     40.1303    3252.2815     0.6394     0.5973     9.9895     480.5410    77.0000    -999.25    -999.25    -999.25
      345.7956     301.4852     0.00         1.3130     43.6381    3470.6465     0.6381     0.5962     9.9881     480.5142    77.0000    -999.25    -999.25    -999.25
      345.9480     301.5837     0.00         1.3079     47.5975    3525.5436     0.6347     0.6026     9.9870     480.5139    77.0000    -999.25    -999.25    -999.25
      346.1004     301.6825     0.00         1.3026     50.8271    4000.0000     0.6157     0.5992     9.9818     480.4011    77.0000    -999.25    -999.25    -999.25
      346.2528     301.7815     0.00         1.2992     51.7426    4000.0000     0.6370     0.6003     9.9757     480.4859    77.2000    -999.25    -999.25    -999.25
      346.4052     301.8807     1.83         1.2987     50.9681    4000.0000     0.6371     0.5984     9.9792     481.0762    77.4000    -999.25    -999.25    -999.25
      346.5576     301.9801     2.67         1.2970     48.9044    4000.0000     0.6562     0.5942     9.9805     481.3062    77.6000    -999.25    -999.25    -999.25
      346.7100     302.0797     6.12         1.2956     45.5073    4000.0000     0.6708     0.5938     9.9807     481.4541    77.8000    -999.25    -999.25    -999.25
      346.8624     302.1796    11.19         1.2921     42.7499    4000.0000     0.6924     0.5857     9.9810     481.6221    78.0000    -999.25    -999.25    -999.25
      347.0148     302.2796    17.70         1.2896     40.0073    4000.0000     0.7109     0.5878     9.9816     481.8254    78.2000    -999.25    -999.25    -999.25
      347.1672     302.3799    25.25         1.2854     37.6477    4000.0000     0.6797     0.5895     9.9841     482.1329    78.4000    -999.25    -999.25    -999.25
      347.3196     302.4804    28.82         1.2838     35.4823    4000.0000     0.6764     0.5884     9.9891     482.6173    78.6000    -999.25    -999.25    -999.25
      347.4720     302.5812    32.53         1.2808     34.9991    4000.0000     0.6822     0.5969     9.9938     483.0701    78.8000    -999.25    -999.25    -999.25
      347.6244     302.6821    34.07         1.2790     34.6353    4000.0000     0.6734     0.5991     9.9952     483.3119    78.8000    -999.25    -999.25    -999.25
      347.7768     302.7833    38.60         1.2782     34.6684    4000.0000     0.6848     0.6041     9.9945     483.4273    78.8000    -999.25    -999.25    -999.25
      347.9292     302.8847    41.62         1.2765     34.9254    4000.0000     0.6838     0.6158     9.9934     483.4861    78.8000    -999.25    -999.25    -999.25
      348.0816     302.9863    44.84         1.2743     34.7050    4000.0000     0.6594     0.6292     9.9920     483.5046    78.8000    -999.25    -999.25    -999.25
      348.2340     303.0881    46.34         1.2699     37.2566    4000.0000     0.6632     0.6396     9.9906     483.5123    78.8000    -999.25    -999.25    -999.25
      348.3864     303.1901    43.94         1.2678     38.1924    4000.0000     0.6586     0.6449     9.9892     483.5170    78.8000    -999.25    -999.25    -999.25
      348.5388     303.2924    40.91         1.2632     41.0245    4000.0000     0.6755     0.6534     9.9879     483.5317    78.8000    -999.25    -999.25    -999.25
      348.6912     303.3949    37.16         1.2587     40.2756    4000.0000     0.7037     0.6505     9.9867     483.5716    78.8000    -999.25    -999.25    -999.25
      348.8436     303.4976    31.49         1.2533     37.8011    4000.0000     0.7147     0.6536     9.9871     483.7709    78.8000    -999.25    -999.25    -999.25
      348.9960     303.6005    27.92         1.2487     36.8180    4000.0000     0.7273     0.6529     9.9920     484.3265    78.8000    -999.25    -999.25    -999.25
      349.1484     303.7037    25.95         1.2443     34.6001    4000.0000     0.7313     0.6489    10.0006     485.1434    78.8000    -999.25    -999.25    -999.25
      349.3008     303.8070    24.15         1.2408     32.3630    4000.0000     0.7227     0.6446    10.0059     485.7147    78.8000    -999.25    -999.25    -999.25
      349.4532     303.9106    23.75         1.2449     29.3651    4000.0000     0.7050     0.6279    10.0108     486.2034    78.8000    -999.25    -999.25    -999.25
      349.6056     304.0145    23.00         1.2528     30.3314    4000.0000     0.6913     0.6151    10.0137     486.4979    78.8000    -999.25    -999.25    -999.25
      349.7580     304.1185    21.59         1.2605     29.0190    3931.6872     0.6729     0.6020    10.0145     486.7033    78.8000    -999.25    -999.25    -999.25
      349.9104     304.2228    20.54         1.2746     35.1723    3929.3403     0.6545     0.5900    10.0144     486.7924    78.8000    -999.25    -999.25    -999.25
      350.0628     304.3272    19.84         1.2918     40.9523    3927.3613     0.6307     0.5772    10.0141     486.8516    78.8000    -999.25    -999.25    -999.25
      350.2152     304.4319    19.59         1.3151     43.1677    3923.2876     0.6102     0.5666    10.0135     486.8835    78.8000    -999.25    -999.25    -999.25
      350.3676     304.5369    19.41         1.3274     48.8997    3938.5650     0.5998     0.5613    10.0127     486.9052    78.8000    -999.25    -999.25    -999.25
      350.5200     304.6420    19.26         1.3389     47.6985    3955.3496     0.5907     0.5575    10.0118     486.9275    78.8000    -999.25    -999.25    -999.25
      350.6724     304.7474    18.93         1.3504     46.7958    3961.6123     0.5842     0.5540    10.0104     486.9575    78.8000    -999.25    -999.25    -999.25
      350.8248     304.8530    18.33         1.3573     43.7680    4000.0000     0.5761     0.5514    10.0092     487.1572    78.8000    -999.25    -999.25    -999.25
      350.9772     304.9588    17.68         1.3682     42.1153    3906.6279     0.5713     0.5485    10.0120     487.7505    78.8000    -999.25    -999.25    -999.25
      351.1296     305.0649    16.41         1.3728     38.0402    3726.1141     0.5700     0.5458    10.0127     488.2066    78.8000    -999.25    -999.25    -999.25
