~Version
VERS .                                       2.0 : LOG ASCII STANDARD - VERSION 2.0
WRAP .                                        NO : WRAP MODE

~Well
STRT .M                                   343.96 : First Index Value
STOP .M                                   915.00 : Last Index Value
STEP .M                                   0.1524 : STEP
NULL .                                   -999.25 : NULL VALUE
CN   .                                    KAROON : Company
WN   .                             1-KPGL-1D-SPS : Well
FN   .                                  S-M-1101 : Field
BASI .                                    SANTOS : Location
LCC  .            Weatherford International Ltd. : Service Company
CTRY .                                    Brazil : Country
LAT  .                             -26:06:26.776 : Latitude
LONG .                             -46:11:00.404 : Longitude
XLOC .M                              7111926.174 : Global X/Y
YLOC .M                               381711.234 : Global X/Y
GDAT .                                     SAD69 : Geodetic Datum
HDAT .                                     SAD69 : Horizontal Datum 
STAT .                                 SAO PAULO : State
CNTY .                                  Offshore : County
APIN .                               86316026760 : API Number
BAP  .M                                  -999.25 : Elevation of Base Antepoco 
BS   .IN                                   26.00 : Bit Diameter
BS1  .IN                                   36.00 : Bit Diameter
BS2  .IN                                   26.00 : Bit Diameter
BS3  .IN                                 -999.25 : Bit Diameter
BS4  .IN                                 -999.25 : Bit Diameter
CBD  .M                                   418.00 : Casing Depth - Driller
CBD1 .M                                   418.00 : Casing Depth - Driller
CBD2 .M                                  -999.25 : Casing Depth - Driller
CBD3 .M                                  -999.25 : Casing Depth - Driller
CBL  .M                                   418.00 : Casing Depth - Logger
CBL1 .M                                   418.00 : Casing Depth - Logger
CBL2 .M                                  -999.25 : Casing Depth - Logger
CBL3 .M                                  -999.25 : Casing Depth - Logger
CS1  .IN                                   30.00 : Casing Diameter
CS2  .IN                                   30.00 : Casing Diameter
CS3  .IN                                 -999.25 : Casing Diameter
CSW  .LB/F                                553.21 : Casing Weight
CSW1 .LB/F                                553.21 : Casing Weight
CSW2 .LB/F                               -999.25 : Casing Weight
CSW3 .LB/F                               -999.25 : Casing Weight
EDF  .M                                    28.00 : Rotary Table Elevation
DMF  .                                        MR : Reference of Depth - Driller
TDD  .M                                   915.00 : Total Depth - Driller
TDD1 .M                                   418.00 : Total Depth - Driller
TDD2 .M                                   915.00 : Total Depth - Driller
TDD3 .M                                  -999.25 : Total Depth - Driller
HIDE .                             1-KPGL-1D-SPS : Header Identifier
MAGD .DEG                                 -20.38 : Magnetic Declination
WITN .                              J.MC CAMBELL : Witness

~Parameter
PDAT .                                        NM : Permanent Datum
APD  .                                        28 : Above Permanent Datum
DREF .                                        RT : Depth Reference
EDR  .M                                       28 : Elevation of Depth Reference
LMF  .                                        RT : Log Measured From
DMF  .                                        RT : Drilling Measured From
EGL  .M                                  -316.00 : Elevation - Ground Level
EKB  .M                                  -999.25 : Elevation - Kelly Bushing
EDF  .M                                       28 : Elevation - Drill Floor
RUN  .                                        01 : Run Name
LCC  .                                    KAROON : Logging Company Code 
LNAM .                                GR/MFR/BAP : Log Names Identificator 
LDAT .                                28/12/2012 : Logging Date
TCS  .HR                                   02:17 : Time Ciculation Stopped
TLAB .HR                                   20:40 : Time Logger At Bottom    
TDD  .M                                   915.00 : Depth - Driller
TDL  .M                                   915.00 : Depth - Logger
BLI  .M                                   898.13 : Bottom Log Interval
TLI  .M                                   418.00 : Top Log Interval
CBD  .M                                   418.00 : Casing Depth - Driller
CBL  .M                                   418.00 : Casing Depth - Logger
BS   .IN                                   26.00 : Bit Size
CS   .IN                                   30.00 : Casing Size Line
CSW  .LB/F                                553.21 : Casing Weight  
DFT  .                               Water Based : Type of Drilling Fluid
DFD  .LB/G                               -999.25 : Drilling Fluid Density
DFV  .S                                  -999.25 : Drilling Fluid Viscosity
DFPH .                                   -999.25 : Drilling Fluid pH
DFL  .C3                                 -999.25 : Drilling Fluid Loss
DFS  .PPM                                -999.25 : Drilling Fluid Salinity
BARI .                                       OFF : Barite On/Off Switch  
RMS  .OHMM                               -999.25 : Mud Resistivity
MST  .DEGC                               -999.25 : Rm Temperature
MSS  .                                  PENEIRAS : Mud Sample Source 
RMFS .OHMM                               -999.25 : Mud Filtrate Resistivity
MFST .DEGC                               -999.25 : Rmf Temperature
MFSS .                                    PRENSA : Mud Filtrate Source 
RMCS .OHMM                               -999.25 : Mud Cake Resistivity
MCST .DEGC                               -999.25 : Rmc Temperature
MCSS .                                    PRENSA : Mud Cake Source 
RMBH .OHMM                               -999.25 : Rm at BHT
STEM .DEGC                               -999.25 : Surface Temperature 
BHT  .DEGC                                  28.9 : Bottom Hole Temperature
MRT  .DEGC                                  28.9 : Max Recorded Temperature
MATR .                                   -999.25 : Neutron Porosity Matrix
MDEN .G/C3                               -999.25 : Matrix Density
FD   .G/C3                               -999.25 : Formation Fluid Density
LTYP .                                       RAW : Log Type
LSRV .                                       LWD : Logging Service  
TPOS .                                         C : Tool Position (centered or variable)
TOOL .                               GAM/MFR/BAP : Tool Strig
R1   .            COUNTY: Offshore : Remark Line 1
R2   .            INICIO DA CIRCULACAO: 28/12/2012 @ 07:36 h;  FIM DA CIRCULACAO: 30/12/2012 @ 02:17 h;  TEMPO TOTAL = 31.8 h. : Remark Line 2
R3   .            TEMPERATURA DE SUPERFICIE = 23.9 degC;  FUNDO = 28.9 degC @ 915 m. : Remark Line 3
R4   .            COORDENADAS DE SUPERFICIE (DATUM SAD69):  N: 7.111.926,174 m;  E: 381.711,234 m. LAT: -26:06:26.776; LONG: -46:11:00.404. /  BASE (DATUM SAD69):  N: 7.112.025,780 m;  E: 381.573,410 m. : Remark Line 4
R5   .            PRIMEIRAS LEITURAS:  HAGRT = 418m; RES = 418m; PRESS= 418m. : Remark Line 5
R6   .            ULTIMAS LEITURAS:  HAGRT = 898.11m; RES = 895.15m; PRESS= 887.37m. : Remark Line 6
R7   .            LAMA:  base agua; peso lama = 12 ppg; Salinidade =  N/A mg/l Total Cloretos; Oil = 0%; Agua= 100%; Baritina = N/A. : Remark Line 7
R8   .            INCLINACAO MAXIMA:  1.14 deg @ 469.82 m. : Remark Line 8
R9   .            DECLINACAO MAGNETICA:  -20.38 deg. : Remark Line 9
ENGI .            SHIDFAR/ANDRADE : Engineer's Names

~Curve
DEPT .M                                          : DEPTH
TVD  .M                                          : True Vertical Depth
ROP  .M/HR                                       : Rate of Penetration
RPD2_X.HR                                        : Exposure Time of 2 MHz 46" PH Calculated Downhole
GR   .GAPI                                       : Gamma Ray Total
RPD2 .OHMM                                       : 2 MHz 46" PH Calculated Downhole
RPM2 .OHMM                                       : 2 MHz 30" PH Calculated Downhole
RPS2 .OHMM                                       : 2 MHz 20" PH Calculated Downhole
ECD  .LB/G                                       : Equivalent Circulating Density
AP   .PSI                                        : Recorded Annulus Pressure
ATMP .DEGF                                       : Recorded Annulus Temperature
TVLATAVG.G                                       : TVM Lateral Average Accelerometer
TVAXAVG.G                                        : TVM Axial Average Accelerometer
TVTOTAVG.G                                       : TVM Average Total Accelerometer

~ASCII
# ...
      746.3028     693.3261    38.53         1.1139    113.3169       0.5968     0.5031     0.4029     9.7042    1116.2375    80.6000     0.0073     0.0000     0.0073
      746.4552     693.4785    39.45         1.1585    125.2349       0.5943     0.4981     0.3956     9.7038    1116.4521    80.6000     0.0050     0.0000     0.0050
      746.6076     693.6309    40.82         1.1577    133.7484       0.5962     0.5046     0.4052     9.7050    1116.8017    80.6000     0.0047     0.0000     0.0047
      746.7600     693.7833    41.99         1.1703    132.8859       0.5965     0.5064     0.4072     9.7070    1117.2291    80.6000     0.0111     0.0000     0.0111
      746.9124     693.9357    41.99         1.1857    130.8758       0.5980     0.5070     0.4084     9.7110    1117.8523    80.6000     0.0142     0.0000     0.0142
      747.0648     694.0881    42.13         1.1880    129.8097       0.6035     0.5111     0.4142     9.7157    1118.5989    80.6000     0.0157     0.0000     0.0157
      747.2172     694.2405    42.35         1.1991    128.7083       0.6074     0.5122     0.4154     9.7228    1119.6329    80.6000     0.0187     0.0000     0.0187
      747.3696     694.3929    42.49         1.2052    128.0915       0.6130     0.5163     0.4211     9.7315    1121.0229    80.6000     0.0188     0.0000     0.0188
      747.5220     694.5453    42.64         1.1915    124.8605       0.6199     0.5220     0.4289     9.7366    1121.9320    80.6000     0.0194     0.0000     0.0194
      747.6744     694.6977    42.82         1.1666    124.8605       0.6235     0.5335     0.4429     9.7340    1121.8643    80.6000     0.0181     0.0000     0.0181
      747.8268     694.8501    42.90         1.1516    127.8667       0.6271     0.5423     0.4515     9.7316    1121.8370    80.6000     0.0135     0.0000     0.0135
      747.9792     695.0025    42.90         1.1391     45.1294       0.6294     0.5485     0.4589     9.7244    1121.3514    80.6000     0.0120     0.0000     0.0120
      748.1316     695.1549    41.93         1.1036     45.1294       0.6325     0.5645     0.4797     9.7220    1121.3215    80.6000     0.0115     0.0000     0.0115
      748.2840     695.3073    41.23         1.1029     45.1294       0.6309     0.5615     0.4739     9.7156    1120.8386    80.6000     0.0093     0.0000     0.0093
      748.4364     695.4597    40.75         1.1021     45.1294       0.6252     0.5355     0.4340     9.7120    1120.6869    80.6000     0.0000     0.0000     0.0000
      748.5888     695.6121    40.05         1.1000     75.0992       0.6188     0.5169     0.4061     9.7119    1120.9280    80.6000     0.0104     0.0000     0.0104
      748.7412     695.7645    39.40         1.0991     90.4009       0.6147     0.5004     0.3814     9.7094    1120.8222    80.6000     0.0120     0.0000     0.0120
      748.8936     695.9169    39.03         1.0982    101.7543       0.6104     0.4839     0.3556     9.7117    1121.3841    80.6000     0.0129     0.0000     0.0129
      749.0460     696.0693    39.62         1.1391    113.3425       0.6098     0.4777     0.3457     9.7132    1121.8345    80.6000     0.0089     0.0000     0.0089
      749.1984     696.2217    39.92         1.1533    121.7671       0.6104     0.4532     0.3113     9.7149    1122.2996    80.6000     0.0045     0.0000     0.0045
      749.3508     696.3741    40.56         1.1674    126.4182       0.6139     0.4434     0.2945     9.7154    1122.5662    80.6000     0.0028     0.0000     0.0028
      749.5032     696.5265    41.02         1.1946    135.5450       0.6163     0.4319     0.2757     9.7173    1122.9594    80.6000     0.0000     0.0000     0.0000
      749.6556     696.6789    41.78         1.1611    135.0912       0.6199     0.4324     0.2765     9.7166    1123.0435    80.6000     0.0000     0.0000     0.0000
      749.8080     696.8313    41.95         1.1427    129.6227       0.6278     0.4356     0.2759     9.7193    1123.5105    80.5000     0.0000     0.0000     0.0000
      749.9604     696.9837    44.32         1.1273    126.7287       0.6387     0.4391     0.2759     9.7225    1124.1045    80.4000     0.0000     0.0000     0.0000
      750.1128     697.1361    48.00         1.1282    116.1753       0.6561     0.4486     0.2763     9.7272    1124.9288    80.3000     0.0000     0.0000     0.0000
      750.2652     697.2885    51.15         1.1354    103.1614       0.6778     0.4695     0.2910     9.7384    1126.5060    80.2000     0.0000     0.0000     0.0000
      750.4176     697.4409    56.35         1.1456     93.5667       0.6814     0.4745     0.2946     9.7427    1127.3572    80.1000     0.0000     0.0000     0.0000
      750.5700     697.5933    60.40         1.1441     79.3866       0.6867     0.4843     0.3036     9.7477    1128.2713    80.0000     0.0023     0.0000     0.0023
      750.7224     697.7457    63.48         1.1302     78.8840       0.6858     0.4877     0.3095     9.7531    1129.2582    79.9000     0.0051     0.0000     0.0051
      750.8748     697.8981    63.48         1.1321     77.6485       0.6863     0.4898     0.3121     9.7494    1129.0934    79.8000     0.0085     0.0000     0.0085
      751.0272     698.0505    62.83         1.0877     79.0357       0.6860     0.5078     0.3384     9.7493    1129.3304    79.7000     0.0112     0.0000     0.0112
      751.1796     698.2029    62.04         1.0874     78.7151       0.6811     0.5111     0.3449     9.7482    1129.3976    79.6000     0.0136     0.0000     0.0136
      751.3320     698.3553    60.65         1.0871     78.3735       0.6789     0.5210     0.3591     9.7425    1128.9459    79.5000     0.0169     0.0000     0.0169
      751.4844     698.5077    59.45         1.0870     74.9495       0.6698     0.5144     0.3556     9.7397    1128.8831    79.4000     0.0141     0.0000     0.0141
      751.6368     698.6601    58.54         1.0869     70.7946       0.6591     0.5066     0.3526     9.7334    1128.4397    79.3000     0.0119     0.0000     0.0119
      751.7892     698.8125    57.21         1.1159     70.2384       0.6430     0.4942     0.3439     9.7300    1128.2886    79.2000     0.0120     0.0000     0.0120
      751.9416     698.9649    57.96         1.1290     68.1904       0.6332     0.4863     0.3385     9.7231    1127.8313    79.1000     0.0092     0.0000     0.0092
      752.0940     699.1173    59.01         1.1393     67.7000       0.6196     0.4773     0.3341     9.7183    1127.5400    79.0000     0.0095     0.0000     0.0095
      752.2464     699.2697    60.43         1.1538     71.4775       0.6118     0.4705     0.3285     9.7000    1125.8434    78.9000     0.0095     0.0000     0.0095
      752.3988     699.4221    61.78         1.1399     71.2159       0.6024     0.4631     0.3272     9.6742    1123.2703    78.8000     0.0094     0.0000     0.0094
      752.5512     699.5745    63.14         1.1206     78.8776       0.6001     0.4611     0.3294     9.6762    1123.6164    78.8000     0.0107     0.0000     0.0107
      752.7036     699.7269    63.20         1.1153     82.3675       0.5937     0.4543     0.3274     9.6838    1124.6205    78.8000     0.0090     0.0000     0.0090
      752.8560     699.8793    64.12         1.0832     97.9344       0.5960     0.4568     0.3337     9.6989    1126.5535    79.4036     0.0069     0.0000     0.0069
      753.0084     700.0317    62.90         1.1112    101.7934       0.6101     0.4564     0.3271     9.7116    1128.2001    79.6665     0.0053     0.0000     0.0053
      753.1608     700.1841    61.60         1.1217    101.0817       0.6194     0.4601     0.3243     9.7181    1129.0974    80.1176     0.0060     0.0000     0.0060
      753.3132     700.3365    61.02         1.1353    105.0587       0.6279     0.4625     0.3207     9.7346    1131.2672    80.6000     0.0049     0.0000     0.0049
      753.4656     700.4889    60.14         1.1362    105.8357       0.6383     0.4711     0.3228     9.7282    1130.6362    80.6000     0.0052     0.0000     0.0052
