~Version
VERS .                                       2.0 : LOG ASCII STANDARD - VERSION 2.0
WRAP .                                        NO : WRAP MODE

~Well
STRT .M                                   343.96 : First Index Value
STOP .M                                   915.00 : Last Index Value
STEP .M                                   0.1524 : STEP
NULL .                                   -999.25 : NULL VALUE
CN   .                                    KAROON : Company
WN   .                             1-KPGL-1D-SPS : Well
FN   .                                  S-M-1101 : Field
BASI .                                    SANTOS : Location
LCC  .            Weatherford International Ltd. : Service Company
CTRY .                                    Brazil : Country
LAT  .                             -26:06:26.776 : Latitude
LONG .                             -46:11:00.404 : Longitude
XLOC .M                              7111926.174 : Global X/Y
YLOC .M                               381711.234 : Global X/Y
GDAT .                                     SAD69 : Geodetic Datum
HDAT .                                     SAD69 : Horizontal Datum 
STAT .                                 SAO PAULO : State
CNTY .                                  Offshore : County
APIN .                               86316026760 : API Number
BAP  .M                                  -999.25 : Elevation of Base Antepoco 
BS   .IN                                   26.00 : Bit Diameter
BS1  .IN                                   36.00 : Bit Diameter
BS2  .IN                                   26.00 : Bit Diameter
BS3  .IN                                 -999.25 : Bit Diameter
BS4  .IN                                 -999.25 : Bit Diameter
CBD  .M                                   418.00 : Casing Depth - Driller
CBD1 .M                                   418.00 : Casing Depth - Driller
CBD2 .M                                  -999.25 : Casing Depth - Driller
CBD3 .M                                  -999.25 : Casing Depth - Driller
CBL  .M                                   418.00 : Casing Depth - Logger
CBL1 .M                                   418.00 : Casing Depth - Logger
CBL2 .M                                  -999.25 : Casing Depth - Logger
CBL3 .M                                  -999.25 : Casing Depth - Logger
CS1  .IN                                   30.00 : Casing Diameter
CS2  .IN                                   30.00 : Casing Diameter
CS3  .IN                                 -999.25 : Casing Diameter
CSW  .LB/F                                553.21 : Casing Weight
CSW1 .LB/F                                553.21 : Casing Weight
CSW2 .LB/F                               -999.25 : Casing Weight
CSW3 .LB/F                               -999.25 : Casing Weight
EDF  .M                                    28.00 : Rotary Table Elevation
DMF  .                                        MR : Reference of Depth - Driller
TDD  .M                                   915.00 : Total Depth - Driller
TDD1 .M                                   418.00 : Total Depth - Driller
TDD2 .M                                   915.00 : Total Depth - Driller
TDD3 .M                                  -999.25 : Total Depth - Driller
HIDE .                             1-KPGL-1D-SPS : Header Identifier
MAGD .DEG                                 -20.38 : Magnetic Declination
WITN .                              J.MC CAMBELL : Witness

~Parameter
PDAT .                                        NM : Permanent Datum
APD  .                                        28 : Above Permanent Datum
DREF .                                        RT : Depth Reference
EDR  .M                                       28 : Elevation of Depth Reference
LMF  .                                        RT : Log Measured From
DMF  .                                        RT : Drilling Measured From
EGL  .M                                  -316.00 : Elevation - Ground Level
EKB  .M                                  -999.25 : Elevation - Kelly Bushing
EDF  .M                                       28 : Elevation - Drill Floor
RUN  .                                        01 : Run Name
LCC  .                                    KAROON : Logging Company Code 
LNAM .                                GR/MFR/BAP : Log Names Identificator 
LDAT .                                28/12/2012 : Logging Date
TCS  .HR                                   02:17 : Time Ciculation Stopped
TLAB .HR                                   20:40 : Time Logger At Bottom    
TDD  .M                                   915.00 : Depth - Driller
TDL  .M                                   915.00 : Depth - Logger
BLI  .M                                   898.13 : Bottom Log Interval
TLI  .M                                   418.00 : Top Log Interval
CBD  .M                                   418.00 : Casing Depth - Driller
CBL  .M                                   418.00 : Casing Depth - Logger
BS   .IN                                   26.00 : Bit Size
CS   .IN                                   30.00 : Casing Size Line
CSW  .LB/F                                553.21 : Casing Weight  
DFT  .                               Water Based : Type of Drilling Fluid
DFD  .LB/G                               -999.25 : Drilling Fluid Density
DFV  .S                                  -999.25 : Drilling Fluid Viscosity
DFPH .                                   -999.25 : Drilling Fluid pH
DFL  .C3                                 -999.25 : Drilling Fluid Loss
DFS  .PPM                                -999.25 : Drilling Fluid Salinity
BARI .                                       OFF : Barite On/Off Switch  
RMS  .OHMM                               -999.25 : Mud Resistivity
MST  .DEGC                               -999.25 : Rm Temperature
MSS  .                                  PENEIRAS : Mud Sample Source 
RMFS .OHMM                               -999.25 : Mud Filtrate Resistivity
MFST .DEGC                               -999.25 : Rmf Temperature
MFSS .                                    PRENSA : Mud Filtrate Source 
RMCS .OHMM                               -999.25 : Mud Cake Resistivity
MCST .DEGC                               -999.25 : Rmc Temperature
MCSS .                                    PRENSA : Mud Cake Source 
RMBH .OHMM                               -999.25 : Rm at BHT
STEM .DEGC                               -999.25 : Surface Temperature 
BHT  .DEGC                                  28.9 : Bottom Hole Temperature
MRT  .DEGC                                  28.9 : Max Recorded Temperature
MATR .                                   -999.25 : Neutron Porosity Matrix
MDEN .G/C3                               -999.25 : Matrix Density
FD   .G/C3                               -999.25 : Formation Fluid Density
LTYP .                                       RAW : Log Type
LSRV .                                       LWD : Logging Service  
TPOS .                                         C : Tool Position (centered or variable)
TOOL .                               GAM/MFR/BAP : Tool Strig
R1   .            COUNTY: Offshore : Remark Line 1
R2   .            INICIO DA CIRCULACAO: 28/12/2012 @ 07:36 h;  FIM DA CIRCULACAO: 30/12/2012 @ 02:17 h;  TEMPO TOTAL = 31.8 h. : Remark Line 2
R3   .            TEMPERATURA DE SUPERFICIE = 23.9 degC;  FUNDO = 28.9 degC @ 915 m. : Remark Line 3
R4   .            COORDENADAS DE SUPERFICIE (DATUM SAD69):  N: 7.111.926,174 m;  E: 381.711,234 m. LAT: -26:06:26.776; LONG: -46:11:00.404. /  BASE (DATUM SAD69):  N: 7.112.025,780 m;  E: 381.573,410 m. : Remark Line 4
R5   .            PRIMEIRAS LEITURAS:  HAGRT = 418m; RES = 418m; PRESS= 418m. : Remark Line 5
R6   .            ULTIMAS LEITURAS:  HAGRT = 898.11m; RES = 895.15m; PRESS= 887.37m. : Remark Line 6
R7   .            LAMA:  base agua; peso lama = 12 ppg; Salinidade =  N/A mg/l Total Cloretos; Oil = 0%; Agua= 100%; Baritina = N/A. : Remark Line 7
R8   .            INCLINACAO MAXIMA:  1.14 deg @ 469.82 m. : Remark Line 8
R9   .            DECLINACAO MAGNETICA:  -20.38 deg. : Remark Line 9
ENGI .            SHIDFAR/ANDRADE : Engineer's Names

~Curve
DEPT .M                                          : DEPTH
TVD  .M                                          : True Vertical Depth
ROP  .M/HR                                       : Rate of Penetration
RPD2_X.HR                                        : Exposure Time of 2 MHz 46" PH Calculated Downhole
GR   .GAPI                                       : Gamma Ray Total
RPD2 .OHMM                                       : 2 MHz 46" PH Calculated Downhole
RPM2 .OHMM                                       : 2 MHz 30" PH Calculated Downhole
RPS2 .OHMM                                       : 2 MHz 20" PH Calculated Downhole
ECD  .LB/G                                       : Equivalent Circulating Density
AP   .PSI                                        : Recorded Annulus Pressure
ATMP .DEGF                                       : Recorded Annulus Temperature
TVLATAVG.G                                       : TVM Lateral Average Accelerometer
TVAXAVG.G                                        : TVM Axial Average Accelerometer
TVTOTAVG.G                                       : TVM Average Total Accelerometer

~ASCII
# ...
      599.9988     547.0241    48.62         1.3278    113.3534       0.7064     0.5243     0.3615     9.7445     877.6240    78.8000     0.0035    -0.0554     0.0569
      600.1512     547.1765    48.72         1.3293    110.7843       0.7094     0.5266     0.3626     9.7432     877.6915    78.8000     0.0047    -0.0608     0.0628
      600.3036     547.3289    48.59         1.3302    110.6493       0.7122     0.5287     0.3640     9.7428     877.9313    78.8000     0.0069    -0.0624     0.0652
      600.4560     547.4813    48.48         1.3319    112.4587       0.7142     0.5309     0.3646     9.7431     878.1668    78.8000     0.0081    -0.0627     0.0661
      600.6084     547.6337    48.28         1.3339    112.6218       0.7269     0.5392     0.3724     9.7428     878.3850    78.8000     0.0077    -0.0667     0.0699
      600.7608     547.7861    48.17         1.3340    112.9920       0.7306     0.5426     0.3724     9.7433     878.6328    78.8000     0.0067    -0.0667     0.0695
      600.9132     547.9385    48.05         1.3338    115.9911       0.7319     0.5436     0.3728     9.7420     878.7635    78.8000     0.0066    -0.0636     0.0664
      601.0656     548.0909    47.81         1.3333    115.3399       0.7323     0.5456     0.3754     9.7407     878.8682    78.8000     0.0066    -0.0613     0.0649
      601.2180     548.2433    47.81         1.3339    116.8196       0.7294     0.5458     0.3780     9.7412     879.2803    78.8000     0.0088    -0.0620     0.0675
      601.3704     548.3957    47.94         1.3337    118.2653       0.7241     0.5388     0.3739     9.7414     879.6834    78.8000     0.0110    -0.0591     0.0672
      601.5228     548.5481    48.16         1.3339    118.3751       0.7151     0.5175     0.3502     9.7436     880.1247    78.8000     0.0156    -0.0634     0.0747
      601.6752     548.7005    48.38         1.3337    117.8658       0.7076     0.4910     0.3188     9.7447     880.4489    78.8000     0.0180    -0.0659     0.0786
      601.8276     548.8529    48.71         1.3340    117.2597       0.7101     0.4643     0.2827     9.7455     880.7131    78.8000     0.0177    -0.0625     0.0748
      601.9800     549.0053    49.00         1.3349    118.9117       0.7197     0.4445     0.2513     9.7467     881.0166    78.8000     0.0153    -0.0618     0.0717
      602.1324     549.1577    49.16         1.3355    119.5129       0.7369     0.4363     0.2351     9.7486     881.4221    78.8000     0.0105    -0.0588     0.0657
      602.2848     549.3100    49.14         1.3364    121.7691       0.7583     0.4227     0.2116     9.7516     881.9702    78.8000     0.0076    -0.0547     0.0600
      602.4372     549.4624    48.79         1.3374    121.1751       0.7770     0.4141     0.1966     9.7542     882.4545    78.8000     0.0049    -0.0597     0.0629
      602.5896     549.6148    48.44         1.3378    120.2562       0.7912     0.4095     0.1894     9.7558     882.8366    78.8000     0.0041    -0.0668     0.0702
      602.7420     549.7672    48.16         1.3379    117.9533       0.7815     0.4099     0.1926     9.7562     883.1134    78.8000     0.0022    -0.0745     0.0768
      602.8944     549.9196    47.59         1.3377    114.2255       0.7686     0.4149     0.2012     9.7550     883.2625    78.8000     0.0050    -0.0809     0.0859
      603.0468     550.0720    47.51         1.3372    113.3752       0.7437     0.4205     0.2143     9.7523     883.3534    78.8000     0.0064    -0.0810     0.0874
      603.1992     550.2244    47.47         1.3368    112.7788       0.7233     0.4301     0.2284     9.7533     883.7138    78.8000     0.0072    -0.0816     0.0888
      603.3516     550.3768    47.25         1.3359    113.6413       0.7130     0.4390     0.2419     9.7535     883.9521    78.8000     0.0066    -0.0812     0.0878
      603.5040     550.5292    47.09         1.3352    114.0769       0.7043     0.4455     0.2525     9.7563     884.4222    78.8000     0.0051    -0.0782     0.0833
      603.6564     550.6816    46.96         1.3342    113.5717       0.6967     0.4553     0.2662     9.7586     884.8643    78.8000     0.0023    -0.0824     0.0846
      603.8088     550.8340    46.66         1.3338    112.7049       0.7012     0.4593     0.2708     9.7599     885.1978    78.8000     0.0000    -0.0782     0.0782
      603.9612     550.9864    46.48         1.3338    115.0909       0.7080     0.4626     0.2737     9.7622     885.6761    78.8000     0.0000    -0.0784     0.0784
      604.1136     551.1388    46.27         1.3346    115.5173       0.7056     0.4651     0.2767     9.7608     885.8364    78.8000     0.0000    -0.0804     0.0804
      604.2660     551.2912    46.27         1.3353    117.6492       0.7048     0.4670     0.2792     9.7598     885.9834    78.8000     0.0000    -0.0824     0.0824
      604.4184     551.4436    46.27         1.3358    116.9861       0.7005     0.4672     0.2804     9.7593     886.1623    78.8000     0.0000    -0.0889     0.0889
      604.5708     551.5960    46.69         1.3367    111.9727       0.6931     0.4675     0.2825     9.7576     886.2725    78.8000     0.0015    -0.0944     0.0950
      604.7232     551.7484    47.03         1.3369    109.5199       0.6908     0.4683     0.2844     9.7590     886.7276    78.8000     0.0019    -0.0986     0.0994
      604.8756     551.9008    47.71         1.3371    103.6770       0.6880     0.4707     0.2890     9.7608     887.1522    78.8000     0.0024    -0.1000     0.1010
      605.0280     552.0532    48.21         1.3374     97.5536       0.6894     0.4793     0.3003     9.7636     887.6707    78.8000     0.0031    -0.1000     0.1013
      605.1804     552.2056    48.31         1.3383     93.5548       0.6933     0.4893     0.3134     9.7684     888.3237    78.8000     0.0040    -0.1000     0.1016
      605.3328     552.3580    48.45         1.3386     87.7238       0.6963     0.4957     0.3214     9.7714     888.8461    78.8000     0.0040    -0.1000     0.1017
      605.4852     552.5104    47.94         1.3385     85.5075       0.6976     0.5021     0.3293     9.7747     889.3819    78.8000     0.0046    -0.1000     0.1019
      605.6376     552.6628    47.73         1.3388     81.1511       0.6988     0.5100     0.3379     9.7777     889.9253    78.8000     0.0034    -0.1000     0.1014
      605.7900     552.8152    47.40         1.3379     80.3539       0.7009     0.5119     0.3406     9.7806     890.4857    78.8000     0.0026    -0.1000     0.1011
      605.9424     552.9676    46.87         1.3375     80.1455       0.7022     0.5168     0.3464     9.7813     890.7696    78.8000     0.0043    -0.1000     0.1018
      606.0948     553.1200    46.49         1.3367     79.0696       0.7026     0.5175     0.3468     9.7821     891.0681    78.8000     0.0032    -0.1000     0.1013
      606.2472     553.2723    46.36         1.3359     79.5907       0.7085     0.5199     0.3511     9.7823     891.3088    78.8000     0.0046    -0.1000     0.1019
      606.3996     553.4247    46.13         1.3368     80.4344       0.7273     0.5310     0.3592     9.7823     891.5789    78.8000     0.0065    -0.1000     0.1027
      606.5520     553.5771    46.13         1.3368     75.0548       0.7338     0.5347     0.3617     9.7825     891.8495    78.8000     0.0108    -0.1000     0.1045
      606.7044     553.7295    46.00         1.3369     75.4910       0.7453     0.5396     0.3658     9.7824     892.0483    78.8000     0.0146    -0.1000     0.1061
      606.8568     553.8819    45.87         1.3372     80.4711       0.7589     0.5497     0.3706     9.7821     892.2938    78.8000     0.0154    -0.1000     0.1064
      607.0092     554.0343    45.61         1.3375     81.1764       0.7633     0.5523     0.3720     9.7827     892.6225    78.8000     0.0149    -0.1000     0.1062
      607.1616     554.1867    45.42         1.3379     87.8501       0.7656     0.5548     0.3731     9.7828     892.8884    78.8000     0.0137    -0.1000     0.1057
